City_ID,City,Lat,Lng,Max Temp,Humidity,Cloudiness,Wind Speed,Country,Date
0,katsuura,35.1333,140.3,4.4,45,6,2.36,JP,1674696270
1,bluff,-46.6,168.3333,19.47,57,21,1.87,NZ,1674696270
2,vaini,-21.2,-175.2,29.09,89,40,4.12,TO,1674696270
3,mataura,-46.1927,168.8643,26.31,29,87,2.01,NZ,1674696271
4,tucumcari,35.1717,-103.725,-1.09,64,100,2.06,US,1674696271
5,busselton,-33.65,115.3333,22.24,49,0,3.0,AU,1674696272
6,yellowknife,62.456,-114.3525,-15.71,85,75,4.63,CA,1674696043
7,laurel,39.0993,-76.8483,11.7,96,100,1.54,US,1674696272
8,tazovskiy,67.4667,78.7,-12.78,95,100,4.23,RU,1674696272
9,torva,58.0028,25.935,1.17,94,100,4.85,EE,1674696273
10,coolum beach,-26.5333,153.1,32.97,73,40,2.9,AU,1674696273
11,new norfolk,-42.7826,147.0587,18.72,39,100,3.91,AU,1674696273
12,kodiak,57.79,-152.4072,5.73,65,0,4.12,US,1674696274
13,tifton,31.4505,-83.5085,14.19,97,100,5.1,US,1674696274
14,nanortalik,60.1432,-45.2371,0.82,99,100,5.07,GL,1674696274
15,thompson,55.7435,-97.8558,-20.91,77,75,2.06,CA,1674696275
16,kruisfontein,-34.0033,24.7314,14.38,89,0,1.59,ZA,1674696275
17,foshan,23.0268,113.1315,12.75,40,99,3.12,CN,1674696276
18,albany,42.6001,-73.9662,2.25,89,100,4.57,US,1674696276
19,upernavik,72.7868,-56.1549,-15.36,94,100,4.94,GL,1674696276
20,wanning,18.8003,110.3967,18.73,80,9,2.01,CN,1674696277
21,manjacaze,-24.7117,33.8828,22.87,83,0,3.48,MZ,1674696277
22,necochea,-38.5473,-58.7368,17.23,55,3,6.52,AR,1674696278
23,rikitea,-23.1203,-134.9692,26.39,76,100,6.57,PF,1674696278
24,thinadhoo,0.5333,72.9333,26.9,75,22,3.25,MV,1674696278
25,olinda,-8.0089,-34.8553,26.85,69,75,3.09,BR,1674696279
26,raga,8.4596,25.678,22.79,30,98,2.0,SS,1674696279
27,atuona,-9.8,-139.0333,25.87,75,80,6.77,PF,1674696279
28,clyde river,70.4692,-68.5914,-24.87,77,100,4.63,CA,1674696280
29,liverpool,53.4106,-2.9779,6.35,92,7,5.14,GB,1674696162
30,pitimbu,-7.4706,-34.8086,26.33,73,1,4.81,BR,1674696280
31,sawtell,-30.3833,153.1,32.88,65,0,5.14,AU,1674696280
32,makakilo city,21.3469,-158.0858,26.18,58,0,4.12,US,1674696281
33,chuy,-33.6971,-53.4616,22.48,77,100,4.2,UY,1674696281
34,denpasar,-8.65,115.2167,26.81,94,75,4.12,ID,1674696133
35,simoes,-7.5989,-40.8178,23.9,60,17,2.59,BR,1674696282
36,camacha,33.0833,-16.3333,13.68,51,40,6.17,PT,1674696282
37,jamestown,42.097,-79.2353,2.77,75,100,3.09,US,1674696255
38,port alfred,-33.5906,26.891,18.99,91,1,0.89,ZA,1674695685
39,faanui,-16.4833,-151.75,27.61,77,80,7.8,PF,1674696283
40,ballina,-28.8667,153.5667,31.12,70,47,3.22,AU,1674696283
41,belaya gora,68.5333,146.4167,-34.42,97,100,0.42,RU,1674696283
42,ushuaia,-54.8,-68.3,6.81,70,40,1.54,AR,1674696106
43,faya,18.3851,42.4509,11.29,51,0,2.12,SA,1674696284
44,mar del plata,-38.0023,-57.5575,20.61,76,0,8.94,AR,1674696014
45,poum,-20.2333,164.0167,28.19,76,10,2.82,NC,1674696088
46,goundi,9.3627,17.366,24.89,17,74,1.43,TD,1674696284
47,kovdor,67.5662,30.4758,-9.17,91,31,3.21,RU,1674696285
48,butaritari,3.0707,172.7902,27.28,77,100,9.2,KI,1674696285
49,havoysund,70.9963,24.6622,1.13,85,100,12.06,NO,1674696136
50,te anau,-45.4167,167.7167,23.47,37,7,3.86,NZ,1674696286
51,bethel,41.3712,-73.414,5.2,86,100,6.69,US,1674695940
52,ishigaki,24.3448,124.1572,19.07,63,20,5.66,JP,1674696286
53,avarua,-21.2078,-159.775,28.03,74,24,1.54,CK,1674696286
54,punta arenas,-53.15,-70.9167,7.06,70,75,5.14,CL,1674696277
55,torbay,47.6666,-52.7314,-3.12,73,40,7.72,CA,1674696287
56,miquelon,47.0975,-56.3814,-4.0,62,100,6.73,PM,1674696259
57,cap malheureux,-19.9842,57.6142,23.59,90,100,1.34,MU,1674695961
58,tessalit,20.1986,1.0114,20.25,15,56,3.52,ML,1674696287
59,kapaa,22.0752,-159.319,26.18,75,75,8.23,US,1674696288
60,chokurdakh,70.6333,147.9167,-35.33,100,100,0.52,RU,1674696288
61,gat,31.61,34.7642,12.44,78,0,1.74,IL,1674696288
62,saint george,37.1041,-113.5841,7.46,36,0,8.75,US,1674696213
63,east london,-33.0153,27.9116,19.92,89,24,5.61,ZA,1674696289
64,romitan,39.9343,64.3814,-10.03,92,1,1.03,UZ,1674696289
65,atbasar,51.8,68.3333,-17.12,93,80,5.44,KZ,1674696290
66,yar-sale,66.8333,70.8333,-13.21,89,100,5.63,RU,1674696290
67,beaver dam,43.4578,-88.8373,-0.44,87,100,2.06,US,1674696207
68,puerto ayora,-0.7393,-90.3518,24.75,92,82,1.34,EC,1674696290
69,den helder,52.9599,4.7593,6.99,93,75,2.24,NL,1674696291
70,jinchang,38.4953,102.1739,-10.9,49,9,2.73,CN,1674696291
71,lompoc,34.6391,-120.4579,17.23,60,0,0.45,US,1674696291
72,kahului,20.8947,-156.47,28.01,69,20,7.2,US,1674696062
73,huancavelica,-12.7667,-74.9833,2.32,97,100,2.31,PE,1674696292
74,batagay,67.6333,134.6333,-37.34,94,100,1.03,RU,1674696292
75,richards bay,-28.783,32.0377,22.45,94,95,3.12,ZA,1674696293
76,akdepe,42.0551,59.3788,-5.95,52,99,2.31,TM,1674696293
77,atchison,39.563,-95.1216,-2.46,87,99,7.11,US,1674696217
78,klaksvik,62.2266,-6.589,2.51,71,100,7.7,FO,1674696293
79,alvorada,-12.48,-49.1247,23.32,88,99,1.13,BR,1674696294
80,ialibu,-6.2821,143.9935,20.66,65,100,1.45,PG,1674696294
81,okhotsk,59.3833,143.3,-22.5,77,100,10.59,RU,1674696294
82,basco,20.4487,121.9702,22.32,68,100,9.99,PH,1674696295
83,abu dhabi,24.4667,54.3667,16.09,84,40,4.63,AE,1674695701
84,puerto suarez,-18.95,-57.8,24.72,83,79,1.46,BO,1674696295
85,omboue,-1.5746,9.2618,25.78,87,7,3.38,GA,1674696295
86,kampot,10.6167,104.1833,25.03,59,86,4.08,KH,1674696296
87,samarai,-10.6167,150.6667,26.11,88,100,4.2,PG,1674696296
88,hermanus,-34.4187,19.2345,16.0,76,50,3.73,ZA,1674696297
89,chapais,49.7834,-74.8492,-16.12,93,100,2.51,CA,1674696297
90,cockburn town,21.4612,-71.1419,24.98,73,40,5.14,TC,1674696124
91,hobart,-42.8794,147.3294,18.92,50,75,6.17,AU,1674696297
92,meulaboh,4.1363,96.1285,24.11,86,99,1.44,ID,1674696298
93,bud,39.447,-86.1758,1.49,96,100,5.75,US,1674696298
94,evensk,61.95,159.2333,-15.45,63,40,10.98,RU,1674696298
95,kihei,20.785,-156.4656,28.01,74,20,7.2,US,1674696299
96,norman wells,65.282,-126.8329,-19.98,84,100,6.69,CA,1674696299
97,cabo san lucas,22.8909,-109.9124,22.17,49,100,1.54,MX,1674696042
98,sarh,9.1429,18.3923,18.95,82,0,1.03,TD,1674696299
99,khatanga,71.9667,102.5,-25.92,86,100,4.06,RU,1674696300
100,bafata,12.1667,-14.75,23.83,51,69,2.24,GW,1674696300
101,castro,-24.7911,-50.0119,19.12,69,49,2.5,BR,1674696300
102,jalu,29.0331,21.5482,14.96,43,0,8.54,LY,1674696301
103,urengoy,65.9667,78.3667,-13.26,96,100,3.26,RU,1674696301
104,acapulco,16.8634,-99.8901,26.9,74,0,3.6,MX,1674695971
105,weinan,34.5036,109.5089,0.49,45,100,1.17,CN,1674696305
106,marrakesh,31.6315,-8.0083,7.04,65,34,2.06,MA,1674696304
107,wuwei,37.9281,102.6414,-11.36,58,100,1.42,CN,1674696306
108,souillac,-20.5167,57.5167,23.21,100,75,3.09,MU,1674696307
109,talnakh,69.4865,88.3972,-19.89,93,100,7.38,RU,1674696307
110,vila franca do campo,37.7167,-25.4333,15.23,82,81,6.53,PT,1674696308
111,barmer,25.75,71.3833,7.61,19,2,3.48,IN,1674696308
112,sur,22.5667,59.5289,18.33,45,8,3.55,OM,1674696309
113,touros,-5.1989,-35.4608,26.05,73,33,4.33,BR,1674696309
114,sao filipe,14.8961,-24.4956,21.27,70,100,1.67,CV,1674696310
115,salekhard,66.53,66.6019,-11.48,96,100,3.47,RU,1674696310
116,conceicao do araguaia,-8.2578,-49.2647,23.57,94,100,1.29,BR,1674696311
117,goya,-29.14,-59.2626,28.94,41,100,2.3,AR,1674696311
118,bredasdorp,-34.5322,20.0403,16.17,78,0,1.66,ZA,1674696312
119,kuruman,-27.4524,23.4325,22.19,55,66,7.94,ZA,1674696312
120,chizhou,30.6578,117.4831,2.61,48,0,0.64,CN,1674696313
121,chulym,55.0997,80.9572,-9.16,91,100,7.15,RU,1674696314
122,dondo,-19.6094,34.7431,23.71,80,73,3.9,MZ,1674696314
123,gornyak,50.9942,81.4661,-11.76,81,100,7.49,RU,1674696315
124,leshukonskoye,64.8989,45.7622,0.69,98,100,4.75,RU,1674696316
125,ponta do sol,32.6667,-17.1,16.51,61,17,5.18,PT,1674696316
126,cairo,30.0626,31.2497,13.42,82,0,2.06,EG,1674695699
127,omsukchan,62.5333,155.8,-25.29,99,100,2.35,RU,1674696318
128,nerekhta,57.4588,40.5747,-1.06,92,100,6.71,RU,1674696318
129,majene,-3.5403,118.9707,27.79,76,100,2.47,ID,1674696319
130,badiraguato,25.3667,-107.5167,20.39,31,100,1.38,MX,1674696319
131,buraydah,26.326,43.975,12.25,85,100,5.45,SA,1674696320
132,miri,4.4148,114.0089,28.08,83,20,2.57,MY,1674696321
133,vestmannaeyjar,63.4427,-20.2734,6.53,75,100,9.51,IS,1674696321
134,namatanai,-3.6667,152.4333,29.46,65,53,3.76,PG,1674696322
135,lagoa,39.05,-27.9833,14.52,68,5,7.91,PT,1674696322
136,tiksi,71.6872,128.8694,-37.05,98,53,2.16,RU,1674696323
137,fairbanks,64.8378,-147.7164,-11.71,78,100,1.54,US,1674696324
138,pasighat,28.0667,95.3333,14.62,53,88,1.28,IN,1674696324
139,broome,42.2506,-75.833,2.43,91,100,4.02,US,1674696326
140,saint-philippe,-21.3585,55.7679,23.77,95,100,4.43,RE,1674696327
141,hilo,19.7297,-155.09,25.71,81,100,0.89,US,1674696327
142,ushtobe,45.2514,77.9838,-17.19,93,7,1.7,KZ,1674696328
143,springdale,36.1867,-94.1288,1.95,88,100,5.14,US,1674696329
144,marsh harbour,26.5412,-77.0636,24.04,83,0,5.79,BS,1674696329
145,half moon bay,37.4636,-122.4286,17.4,52,0,4.12,US,1674696330
146,nador,35.174,-2.9287,9.14,76,0,3.09,MA,1674696330
147,qaanaaq,77.484,-69.3632,-18.78,62,89,3.21,GL,1674696331
148,ferrol,43.4832,-8.2369,10.38,73,78,5.0,ES,1674696331
149,severo-kurilsk,50.6789,156.125,-3.09,86,100,7.5,RU,1674696331
150,bekhtery,46.251,32.2927,-0.95,81,6,2.94,UA,1674696332
151,namibe,-15.1961,12.1522,23.64,81,98,2.68,AO,1674696332
152,miraflores,19.2167,-98.8083,19.46,41,0,2.44,MX,1674696332
153,dhidhdhoo,6.8833,73.1,26.71,74,100,3.99,MV,1674696083
154,kenai,60.5544,-151.2583,3.05,88,0,4.12,US,1674696333
155,ribeira grande,38.5167,-28.7,15.99,66,51,11.18,PT,1674696333
156,oistins,13.0667,-59.5333,26.05,65,40,8.23,BB,1674696334
157,kaitangata,-46.2817,169.8464,21.9,55,98,3.33,NZ,1674696334
158,champerico,14.3,-91.9167,26.72,69,4,5.25,GT,1674696334
159,ratnagiri,16.9833,73.3,21.4,68,100,2.64,IN,1674696335
160,florianopolis,-27.6146,-48.5012,24.79,82,20,1.54,BR,1674696270
161,maine-soroa,13.2114,12.0241,21.6,11,100,3.62,NE,1674696335
162,taoudenni,22.6783,-3.9836,18.87,14,97,3.92,ML,1674696074
163,arman,59.7,150.1667,-16.35,79,100,6.62,RU,1674696335
164,provideniya,64.3833,-173.3,-22.58,84,100,8.05,RU,1674696336
165,shenjiamen,29.9576,122.298,6.24,70,6,1.98,CN,1674696336
166,constitucion,-35.3333,-72.4167,13.31,80,0,6.74,CL,1674696337
167,la ronge,55.1001,-105.2842,-11.86,79,100,2.57,CA,1674696337
168,airai,-8.9266,125.4092,21.64,63,100,0.65,TL,1674696337
169,longyearbyen,78.2186,15.6401,-9.09,57,40,8.75,SJ,1674696338
170,dunedin,-45.8742,170.5036,21.56,70,40,0.89,NZ,1674696338
171,cherepovets,59.1333,37.9,0.62,98,100,6.44,RU,1674696338
172,najran,17.4924,44.1277,13.36,51,0,1.42,SA,1674696339
173,manokwari,-0.8667,134.0833,28.21,73,90,3.56,ID,1674696339
174,port blair,11.6667,92.75,27.02,78,40,1.54,IN,1674696339
175,shimoda,34.6667,138.95,6.2,59,3,11.49,JP,1674696340
176,cidreira,-30.1811,-50.2056,24.94,83,6,6.24,BR,1674696340
177,georgetown,5.4112,100.3354,25.96,78,20,1.03,MY,1674696212
178,akyab,20.15,92.9,18.18,64,1,2.38,MM,1674696340
179,pevek,69.7008,170.3133,-27.99,79,1,0.16,RU,1674696341
180,ballarat,-37.5662,143.8496,20.88,51,4,1.79,AU,1674696341
181,cape town,-33.9258,18.4232,17.73,74,12,4.47,ZA,1674695647
182,novyy svit,47.8059,38.0211,-3.13,52,0,3.23,UA,1674696341
183,kristiinankaupunki,62.2743,21.376,2.28,88,100,4.54,FI,1674696342
184,korla,41.7597,86.1469,-10.82,60,72,1.9,CN,1674696342
185,feicheng,35.2606,117.9675,-3.07,31,100,1.11,CN,1674696343
186,wasilla,61.5814,-149.4394,3.37,91,100,2.57,US,1674696343
187,sept-iles,50.2001,-66.3821,-15.0,67,40,3.09,CA,1674696343
188,abu kamal,34.4506,40.9171,10.72,42,98,2.97,SY,1674696344
189,tuatapere,-46.1333,167.6833,24.92,38,15,1.55,NZ,1674696344
190,havre-saint-pierre,50.2334,-63.5986,-14.0,55,0,3.09,CA,1674696344
191,corcoran,36.098,-119.5604,14.05,50,0,1.93,US,1674696344
192,bandarbeyla,9.4942,50.8122,24.22,66,100,6.94,SO,1674696345
193,mehamn,71.0357,27.8492,0.97,69,40,8.23,NO,1674696345
194,palimbang,6.2106,124.1894,27.12,69,100,1.23,PH,1674696211
195,carutapera,-1.195,-46.02,23.8,93,98,2.22,BR,1674696346
196,arraial do cabo,-22.9661,-42.0278,21.98,88,20,1.03,BR,1674696346
197,cayenne,4.9333,-52.3333,22.02,88,0,0.0,GF,1674696346
198,aljezur,37.3191,-8.8033,5.3,71,0,3.39,PT,1674696174
199,port-cartier,50.0334,-66.8654,-15.18,92,98,2.39,CA,1674696347
200,hithadhoo,-0.6,73.0833,27.16,74,75,4.12,MV,1674696083
201,chumikan,54.7183,135.315,-25.36,83,100,9.33,RU,1674696347
202,lokosovo,61.1333,74.8167,-13.08,93,88,5.37,RU,1674696348
203,soe,-9.8607,124.284,24.68,70,100,0.48,ID,1674696348
204,shebalino,51.2917,85.6772,-12.14,87,100,3.21,RU,1674696348
205,katherine,-14.4667,132.2667,31.18,58,100,2.06,AU,1674696349
206,moose factory,51.2585,-80.6094,-22.0,77,100,2.57,CA,1674696349
207,sayyan,15.1718,44.3244,10.06,56,10,1.21,YE,1674696350
208,kavieng,-2.5744,150.7967,28.78,70,100,4.12,PG,1674696350
209,kurya,51.6003,82.2888,-9.11,87,100,9.66,RU,1674696350
210,tena,-0.9833,-77.8167,22.0,87,97,1.22,EC,1674696351
211,innisfail,-17.5333,146.0333,28.8,69,41,3.89,AU,1674696351
212,wilmington island,32.0036,-80.9737,17.24,96,100,4.18,US,1674696351
213,praia da vitoria,38.7333,-27.0667,15.14,77,75,7.45,PT,1674696352
214,valdivia,-39.8142,-73.2459,14.05,92,14,1.32,CL,1674696352
215,olafsvik,64.8945,-23.7142,4.96,87,100,12.98,IS,1674696352
216,correntina,-13.3433,-44.6367,21.42,91,52,0.99,BR,1674696353
217,buala,-8.145,159.5921,29.16,72,100,3.62,SB,1674696353
218,nikolskoye,59.7035,30.7861,2.94,97,100,4.64,RU,1674696353
219,pangnirtung,66.1451,-65.7125,-34.71,99,100,0.69,CA,1674696354
220,hasaki,35.7333,140.8333,5.16,30,2,3.98,JP,1674696354
221,goundam,16.4145,-3.6708,24.15,14,100,4.51,ML,1674696354
222,cheney,47.4874,-117.5758,1.19,87,75,0.0,US,1674696233
223,beruwala,6.4788,79.9828,22.63,92,24,1.68,LK,1674696355
224,rawson,-43.3002,-65.1023,21.79,33,6,3.19,AR,1674696355
225,san patricio,28.017,-97.5169,15.47,50,0,3.51,US,1674696355
226,dikson,73.5069,80.5464,-16.91,91,100,9.97,RU,1674696356
227,ilulissat,69.2167,-51.1,-4.99,86,100,0.0,GL,1674696356
228,pacifica,37.6138,-122.4869,17.88,64,0,4.12,US,1674696356
229,inyonga,-6.7167,32.0667,17.0,95,100,1.83,TZ,1674696357
230,mahebourg,-20.4081,57.7,23.47,100,75,3.09,MU,1674696357
231,price,39.5994,-110.8107,-3.41,50,0,5.66,US,1674696357
232,tres arroyos,-38.3739,-60.2798,18.68,39,15,3.02,AR,1674696358
233,hit,33.6416,42.8251,9.84,33,7,2.85,IQ,1674696358
234,tuktoyaktuk,69.4541,-133.0374,-28.0,76,20,4.12,CA,1674696358
235,flinders,-34.5833,150.8552,32.36,64,4,2.24,AU,1674696359
236,coihaique,-45.5752,-72.0662,9.97,76,20,3.09,CL,1674696359
237,mumford,5.2618,-0.759,26.42,89,12,4.32,GH,1674696359
238,erzin,36.9559,36.2,9.55,59,1,1.84,TR,1674696360
239,veraval,20.9,70.3667,14.42,38,7,6.71,IN,1674696162
240,bambous virieux,-20.3428,57.7575,23.45,100,75,3.09,MU,1674696360
241,kalabo,-14.97,22.6814,17.7,96,100,2.29,ZM,1674696361
242,alofi,-19.0595,-169.9187,27.94,83,75,2.06,NU,1674696361
243,kostomuksha,64.571,30.5767,0.18,99,100,2.98,RU,1674696363
244,salalah,17.0151,54.0924,24.05,69,75,4.63,OM,1674696363
245,kumla,59.1277,15.1434,4.97,100,100,3.09,SE,1674696364
246,atar,20.5169,-13.0499,21.2,14,100,3.89,MR,1674696365
247,culiacan,24.7994,-107.3897,20.82,49,100,2.57,MX,1674696144
248,bathsheba,13.2167,-59.5167,26.34,65,40,8.23,BB,1674696365
249,los llanos de aridane,28.6585,-17.9182,15.86,68,75,9.39,ES,1674696366
250,bilma,18.6853,12.9164,21.13,14,0,3.22,NE,1674696367
251,aleksandrov gay,50.147,48.5704,-9.24,75,7,1.28,RU,1674696368
252,kamina,-8.7386,24.9906,15.92,98,100,1.35,CD,1674696368
253,markova,48.6758,24.4138,-4.0,89,7,0.67,UA,1674696369
254,qeshm,26.9581,56.2719,15.94,39,77,7.96,IR,1674696369
255,uige,-7.6087,15.0613,18.57,96,100,1.0,AO,1674696370
256,kwaluseni,-26.4833,31.3333,19.05,88,100,1.75,SZ,1674696370
257,anadyr,64.75,177.4833,-28.62,68,0,5.0,RU,1674696370
258,harindanga,22.0383,88.3214,19.76,71,5,1.36,IN,1674696371
259,healesville,-37.65,145.5167,22.56,71,58,1.34,AU,1674696371
260,kuytun,54.3419,101.5036,-28.96,94,73,1.17,RU,1674696372
261,itarema,-2.9248,-39.9167,25.25,80,100,3.05,BR,1674696372
262,preobrazheniye,42.9019,133.9064,-13.75,52,0,4.03,RU,1674696373
263,salinopolis,-0.6136,-47.3561,25.01,86,83,3.66,BR,1674696373
264,ankara,39.9199,32.8543,0.67,86,40,0.51,TR,1674696232
265,lasa,46.6166,10.7002,-0.51,56,35,1.82,IT,1674696374
266,sioux lookout,50.1001,-91.917,-20.96,84,0,1.03,CA,1674696167
267,lithgow,-33.4833,150.15,29.34,25,0,3.99,AU,1674696374
268,lebu,-37.6167,-73.65,14.48,83,3,5.96,CL,1674696375
269,vanimo,-2.6741,141.3028,29.56,65,81,1.64,PG,1674696375
270,bela vista de goias,-16.9728,-48.9533,22.64,87,100,0.69,BR,1674696376
271,saint-augustin,51.226,-58.6502,-18.72,80,0,2.73,CA,1674696376
272,cartagena,10.3997,-75.5144,26.79,78,0,5.66,CO,1674696041
273,sehithwa,-20.4667,22.7167,23.27,50,95,2.5,BW,1674696378
274,port elizabeth,-33.918,25.5701,19.16,91,40,3.6,ZA,1674696379
275,takoradi,4.8845,-1.7554,26.58,86,0,3.82,GH,1674696379
276,narsaq,60.9167,-46.05,0.12,99,100,3.36,GL,1674696380
277,guarapari,-20.6667,-40.4975,23.83,91,100,2.89,BR,1674696380
278,ostrovnoy,68.0531,39.5131,-4.78,88,94,9.77,RU,1674696381
279,grindavik,63.8424,-22.4338,5.97,81,75,11.32,IS,1674696381
280,almeria,37.1667,-2.3333,4.87,62,0,3.86,ES,1674696382
281,bihoro,43.8228,144.1044,-6.99,42,75,3.6,JP,1674696382
282,mombasa,-4.0547,39.6636,24.14,87,11,4.03,KE,1674696383
283,tsabong,-26.0217,22.401,25.77,47,100,3.8,BW,1674696384
284,high level,58.5169,-117.136,-8.94,100,100,4.12,CA,1674696384
285,ilo,-17.6394,-71.3375,21.47,85,100,0.4,PE,1674696385
286,orchard homes,46.8633,-114.0484,1.08,86,100,2.57,US,1674696385
287,punta alta,-38.8759,-62.0736,24.74,42,79,3.28,AR,1674696385
288,bridlington,54.0831,-0.1919,5.29,84,8,8.53,GB,1674696386
289,ishinomaki,38.4167,141.3,0.0,54,41,7.81,JP,1674696386
290,ancud,-41.8697,-73.8203,13.62,87,100,4.75,CL,1674696387
291,parker,32.7668,-97.8003,4.95,78,5,0.89,US,1674696146
292,nayudupeta,13.9,79.9,19.49,90,53,1.37,IN,1674696388
293,petropavlovsk-kamchatskiy,53.0452,158.6483,2.33,70,100,12.0,RU,1674696389
294,babstovo,48.1167,132.4833,-29.08,82,5,2.29,RU,1674696389
295,malanje,-9.5402,16.341,16.39,94,100,0.95,AO,1674696390
296,san cristobal,7.7669,-72.225,21.1,69,20,0.82,VE,1674696390
297,barrow,71.2906,-156.7887,-26.99,76,0,6.69,US,1674696391
298,strezhevoy,60.7333,77.5889,-12.26,92,100,5.58,RU,1674696391
299,zagora,30.3484,-5.8365,8.12,41,98,4.7,MA,1674696391
300,saint-louis,16.3333,-15.0,24.86,28,94,4.09,SN,1674696392
301,saldanha,-33.0117,17.9442,14.03,84,0,8.06,ZA,1674696392
302,san quintin,30.4833,-115.95,14.94,49,100,2.64,MX,1674696392
303,coquimbo,-29.9533,-71.3436,16.85,88,0,3.6,CL,1674696197
304,caborca,30.5838,-111.101,13.79,25,7,3.59,MX,1674696393
305,zhigansk,66.7697,123.3711,-38.27,98,99,2.42,RU,1674696393
306,yellapur,14.9667,74.7167,17.03,96,17,1.04,IN,1674696394
307,along,28.1667,94.7667,10.41,70,100,0.63,IN,1674696394
308,tarakeswar,22.885,88.0172,17.85,71,2,1.02,IN,1674696394
309,jawhar,2.7809,45.5005,21.13,75,0,6.12,SO,1674696395
310,port hardy,50.6996,-127.4199,6.1,100,100,1.54,CA,1674696126
311,naze,28.3667,129.4833,13.51,59,9,1.34,JP,1674696395
312,cururupu,-1.8283,-44.8683,22.77,97,100,0.89,BR,1674696396
313,tilichiki,60.4667,166.1,-16.88,70,98,8.46,RU,1674696396
314,souris,49.6172,-100.2612,-9.08,99,86,2.27,CA,1674696396
315,krasnoselkup,65.7,82.4667,-16.07,95,100,7.02,RU,1674696396
316,benguela,-12.5763,13.4055,25.69,80,100,2.94,AO,1674696002
317,cassilandia,-19.1133,-51.7342,22.86,87,1,1.09,BR,1674696397
318,hamilton,39.1834,-84.5333,2.67,90,100,6.69,US,1674696289
319,isilkul,54.9109,71.2728,-13.51,94,58,5.48,RU,1674696397
320,bengkulu,-3.8004,102.2655,24.87,82,100,1.92,ID,1674696198
321,itoman,26.1247,127.6694,19.01,56,40,4.63,JP,1674696398
322,jiuquan,39.7432,98.5174,-14.77,71,23,2.17,CN,1674696398
323,mount isa,-20.7333,139.5,33.87,38,39,2.06,AU,1674696398
324,tagusao,9.1924,117.8141,26.68,77,77,2.56,PH,1674696399
325,carnarvon,-24.8667,113.6333,29.35,57,0,3.55,AU,1674696399
326,cartagena del chaira,1.3349,-74.8429,24.44,62,48,1.68,CO,1674696399
327,diffa,13.3154,12.6113,21.85,14,100,3.52,NE,1674696400
328,esperance,-33.8667,121.9,21.35,64,28,2.74,AU,1674696400
329,tasiilaq,65.6145,-37.6368,-2.91,96,100,9.4,GL,1674696400
330,kieta,-6.2167,155.6333,27.71,78,71,4.26,PG,1674696401
331,road town,18.4167,-64.6167,25.02,94,40,3.6,VG,1674696401
332,acajutla,13.5928,-89.8275,26.0,76,11,3.76,SV,1674696401
333,sarangani,5.4033,125.4636,27.59,77,100,4.58,PH,1674696402
334,cranbrook,49.4999,-115.7688,-4.09,74,40,1.03,CA,1674696220
335,adrar,20.5022,-10.0711,18.66,13,100,4.65,MR,1674696402
336,guerrero negro,27.9769,-114.0611,17.59,31,83,1.55,MX,1674696338
337,chiang kham,19.5233,100.3,19.39,70,0,0.51,TH,1674696403
338,puerto cabezas,14.0351,-83.3888,24.45,89,9,3.82,NI,1674696403
339,whitianga,-36.8333,175.7,20.53,68,68,5.74,NZ,1674696403
340,gallup,35.5281,-108.7426,-3.09,53,0,3.6,US,1674696404
341,williston,48.147,-103.618,-2.59,94,78,4.4,US,1674696229
342,iranshahr,27.2025,60.6848,8.52,28,65,1.41,IR,1674696404
343,ekhabi,53.5102,142.9671,-20.41,91,100,10.42,RU,1674696404
344,ichinohe,40.2069,141.3017,-4.69,76,75,6.58,JP,1674696405
345,inta,66.0317,60.1659,-5.73,92,100,8.16,RU,1674696405
346,russell,32.3502,-85.1999,10.6,71,20,7.72,US,1674696405
347,saint-pierre,-21.3393,55.4781,23.82,83,75,3.09,RE,1674696406
348,iqaluit,63.7506,-68.5145,-33.15,68,20,1.03,CA,1674696406
349,sosnovo,60.5514,30.2144,0.14,97,100,5.47,RU,1674696406
350,padang,-0.9492,100.3543,26.03,77,100,1.2,ID,1674696407
351,luderitz,-26.6481,15.1594,17.22,67,0,8.04,NA,1674696407
352,port hedland,-20.3167,118.5667,37.03,39,8,4.63,AU,1674696407
353,rayong,12.8333,101.4333,23.8,52,51,2.05,TH,1674696257
354,hellin,38.5106,-1.701,2.77,63,18,4.96,ES,1674696408
355,antofagasta,-23.65,-70.4,20.6,85,64,1.67,CL,1674696313
356,bardiyah,31.7561,25.0865,14.05,68,58,6.89,LY,1674696409
357,mount gambier,-37.8333,140.7667,20.03,38,7,3.96,AU,1674696248
358,henties bay,-22.116,14.2845,17.36,85,58,2.53,NA,1674696409
359,erdenet,49.0333,104.0833,-26.99,96,21,2.06,MN,1674696409
360,abha,18.2164,42.5053,11.14,54,0,6.69,SA,1674696410
361,bouca,6.5105,18.2733,21.49,22,0,0.11,CF,1674696410
362,lodja,-3.4833,23.4333,19.11,92,100,0.1,CD,1674696410
363,depalpur,22.85,75.55,14.22,56,3,3.59,IN,1674696411
364,kungurtug,50.5994,97.5228,-27.71,97,100,0.83,RU,1674696411
365,leh,34.1667,77.5833,-14.02,89,97,1.2,IN,1674696411
366,dublin,37.7021,-121.9358,17.39,52,0,2.06,US,1674696412
367,sembe,1.6481,14.5806,25.46,49,94,0.87,CG,1674696412
368,fuerte olimpo,-21.0415,-57.8738,26.69,63,62,2.07,PY,1674696412
369,bairiki,1.3292,172.9752,27.0,89,75,4.63,KI,1674696413
370,bangassou,4.7413,22.8184,21.21,38,24,1.38,CF,1674696413
371,vila velha,-20.3297,-40.2925,23.97,95,75,3.09,BR,1674696413
372,shenzhen,22.5455,114.0683,15.63,78,26,2.32,CN,1674696268
373,sokoni,-6.4333,39.55,26.76,81,100,7.04,TZ,1674696414
374,ibirama,-27.0569,-49.5178,21.61,94,5,1.51,BR,1674696414
375,ko samui,9.5357,99.9357,26.95,74,20,3.09,TH,1674696414
376,todos santos,23.45,-110.2167,20.37,68,100,3.4,MX,1674696415
377,sao raimundo nonato,-9.0153,-42.6994,27.14,51,100,1.36,BR,1674696415
378,kununurra,-15.7667,128.7333,25.99,94,100,2.57,AU,1674696410
379,fort nelson,58.8053,-122.7002,-4.23,93,40,3.09,CA,1674696416
380,peto,20.1333,-88.9167,22.08,95,94,1.35,MX,1674696416
381,kumluca,36.3703,30.2869,12.88,66,6,1.74,TR,1674696416
382,pisco,-13.7,-76.2167,23.03,83,75,3.09,PE,1674696417
383,victoria,22.2855,114.1577,15.69,72,41,2.24,HK,1674696303
384,san juan,-31.5375,-68.5364,28.45,45,0,5.04,AR,1674696340
385,haines junction,60.7522,-137.5108,-0.85,93,41,2.69,CA,1674696286
386,palana,59.1167,159.9667,-9.21,63,100,15.13,RU,1674696417
387,deputatskiy,69.3,139.9,-38.54,99,100,1.03,RU,1674696417
388,saskylakh,71.9167,114.0833,-33.31,97,100,4.35,RU,1674696418
389,gamba,-2.65,10.0,25.65,87,96,2.65,GA,1674696418
390,bubaque,11.2833,-15.8333,24.2,75,43,8.12,GW,1674696418
391,penha,-26.7694,-48.6458,25.93,83,40,5.14,BR,1674696419
392,bustamante,26.5333,-100.5,13.16,32,11,3.04,MX,1674696419
393,porto novo,6.4965,2.6036,27.9,88,5,2.66,BJ,1674696419
394,roald,62.5833,6.1333,7.09,69,98,7.82,NO,1674696420
395,cherskiy,68.75,161.3,-35.68,97,24,0.87,RU,1674696420
396,puerto madryn,-42.7692,-65.0385,21.66,39,12,2.51,AR,1674696420
397,sola,-13.8833,167.55,28.15,76,100,6.78,VU,1674696421
398,caravelas,-17.7125,-39.2481,25.29,83,100,3.6,BR,1674696421
399,la palma,33.8464,-118.0467,21.08,47,20,4.12,US,1674696421
400,pimenta bueno,-11.6725,-61.1936,22.94,95,74,1.42,BR,1674696422
401,lexington,37.9887,-84.4777,3.0,84,100,5.66,US,1674696192
402,mgandu,-5.95,34.1333,15.47,96,100,1.45,TZ,1674696424
403,karasjok,69.4719,25.5112,-4.93,89,20,5.83,NO,1674696424
404,knyaginino,55.8228,45.0349,-5.51,90,99,6.21,RU,1674696425
405,codrington,-38.2667,141.9667,18.74,44,63,5.53,AU,1674696426
406,san carlos de bariloche,-41.1456,-71.3082,12.86,50,40,7.2,AR,1674696427
407,reinosa,42.9996,-4.138,2.48,98,100,3.1,ES,1674696428
408,jian,27.1172,114.9793,4.9,50,0,0.64,CN,1674696429
409,geraldton,-28.7667,114.6,28.23,39,7,3.6,AU,1674696380
410,muros,42.7762,-9.0603,8.8,79,19,4.24,ES,1674696430
411,sobolevo,54.4299,31.8996,-2.78,78,100,3.96,RU,1674696430
412,comodoro rivadavia,-45.8667,-67.5,20.92,28,20,12.35,AR,1674696392
413,les cayes,18.2,-73.75,23.79,78,59,4.39,HT,1674696432
414,oranjemund,-28.55,16.4333,15.74,91,2,5.36,NA,1674696419
415,hammerfest,70.6634,23.6821,1.25,69,75,3.6,NO,1674696433
416,aklavik,68.2191,-135.0107,-20.72,97,100,5.23,CA,1674696434
417,teya,60.3778,92.6267,-24.65,95,100,2.25,RU,1674696435
418,conde,-7.2597,-34.9075,25.7,78,20,2.57,BR,1674696438
419,kaeo,-35.1,173.7833,20.58,85,90,6.49,NZ,1674696439
420,tarko-sale,64.9225,77.785,-12.98,95,98,5.71,RU,1674696440
421,ahipara,-35.1667,173.1667,22.24,72,93,6.81,NZ,1674696441
422,ust-tsilma,65.441,52.1498,0.74,98,100,4.41,RU,1674696442
423,nantucket,41.2835,-70.0995,6.06,88,100,9.77,US,1674696443
424,harper,4.375,-7.7169,25.91,86,100,2.51,LR,1674696444
425,angoche,-16.2325,39.9086,24.27,93,100,6.67,MZ,1674696444
426,sao joao da barra,-21.6403,-41.0511,23.07,90,99,3.87,BR,1674696445
427,cape coast,5.1053,-1.2466,26.49,89,0,4.18,GH,1674696446
428,qarqin,37.4185,66.0436,-1.87,74,6,0.23,AF,1674696446
429,emerald,-23.5333,148.1667,30.19,51,51,5.07,AU,1674696447
430,uusikaupunki,60.8004,21.4084,1.8,99,99,3.37,FI,1674696448
431,lazaro cardenas,17.9583,-102.2,23.95,71,0,2.66,MX,1674696166
432,catamarca,-28.4696,-65.7852,25.04,84,21,3.43,AR,1674696452
433,mufulira,-12.5498,28.2407,15.11,97,100,1.73,ZM,1674696453
434,tala,30.6803,30.9429,9.4,90,0,2.12,EG,1674696453
435,wau,7.7029,27.9953,25.51,30,100,2.72,SS,1674696454
436,la grande,45.3246,-118.0877,4.48,78,39,0.7,US,1674696433
437,francistown,-21.17,27.5079,20.69,60,100,7.8,BW,1674696454
438,kyren,51.6828,102.1408,-23.05,80,3,1.02,RU,1674696455
439,troitsk,54.0979,61.5773,-17.81,95,5,2.24,RU,1674696455
440,asyut,27.181,31.1837,12.1,58,0,2.36,EG,1674696455
441,baiyin,36.5583,104.2081,-10.16,45,99,3.36,CN,1674696456
442,valparaiso,-33.0393,-71.6273,16.8,67,0,3.6,CL,1674696456
443,pundaguitan,6.3711,126.1689,26.43,80,100,5.36,PH,1674696456
444,lavrentiya,65.5833,-171.0,-24.33,89,100,4.84,RU,1674696457
445,thunder bay,48.4001,-89.3168,-11.01,72,100,4.63,CA,1674696412
446,walvis bay,-22.9575,14.5053,15.61,83,11,3.31,NA,1674696457
447,goma,-1.6792,29.2228,15.5,82,90,1.77,CD,1674696457
448,medak,18.0333,78.2667,16.26,76,8,2.93,IN,1674696458
449,batemans bay,-35.7167,150.1833,24.5,44,6,5.45,AU,1674696458
450,taupo,-38.6833,176.0833,21.19,45,100,0.26,NZ,1674696458
451,biak,-0.9131,122.8766,27.62,68,100,0.53,ID,1674696459
452,zhangjiakou,40.81,114.8794,-13.81,61,13,3.82,CN,1674696459
453,shingu,33.7333,135.9833,5.08,42,1,2.1,JP,1674696459
454,alakurtti,66.9672,30.3491,-8.27,89,22,3.56,RU,1674696460
455,flin flon,54.7682,-101.865,-21.64,100,56,1.67,CA,1674696460
456,daru,-9.0763,143.2092,28.16,79,100,1.12,PG,1674696461
457,cienfuegos,22.1461,-80.4356,24.08,88,0,1.54,CU,1674696461
458,colares,38.7992,-9.4469,8.94,63,0,9.83,PT,1674696461
459,timizart,36.8,4.2667,8.19,83,89,7.11,DZ,1674696462
460,qax,41.4225,46.9242,-1.45,55,3,1.93,AZ,1674696462
461,arenapolis,-14.4503,-56.8461,23.48,93,100,0.53,BR,1674696462
462,buin,-33.7333,-70.75,25.24,53,0,1.97,CL,1674696463
463,tighina,46.8306,29.4711,-1.57,83,34,1.51,MD,1674696463
464,mafinga,-7.25,35.0667,18.05,98,100,1.49,TZ,1674696463
465,yulara,-25.2406,130.9889,34.15,20,10,3.7,AU,1674696261
466,dwarka,22.2394,68.9678,17.0,37,0,7.64,IN,1674696464
467,ankazobe,-18.3167,47.1167,17.31,96,100,3.5,MG,1674696464
468,xining,36.6167,101.7667,-8.88,26,100,1.23,CN,1674696465
469,conway,35.0887,-92.4421,3.99,87,100,3.6,US,1674696412
470,nadym,65.5333,72.5167,-17.3,91,82,4.55,RU,1674696465
471,svetlyy yar,48.4748,44.781,-11.22,94,9,1.69,RU,1674696465
472,paamiut,61.994,-49.6678,-1.97,96,100,7.13,GL,1674696466
473,fomboni,-12.28,43.7425,28.01,81,100,9.44,KM,1674696466
474,touba,8.2833,-7.6833,23.99,66,24,1.71,CI,1674696466
475,shache,38.4167,77.2406,-13.04,94,97,0.99,CN,1674696467
476,menfi,37.6066,12.9678,7.17,86,98,0.42,IT,1674696467
477,birjand,32.8663,59.2211,-7.74,73,0,2.06,IR,1674696467
478,qaqortoq,60.7167,-46.0333,0.28,99,100,5.17,GL,1674696468
479,patea,-39.7583,174.4833,21.52,62,100,3.94,NZ,1674696468
480,portland,45.5234,-122.6762,8.38,84,100,1.54,US,1674695842
481,robertson,36.5167,-86.8667,4.38,92,100,4.12,US,1674696468
482,santa ines,-3.6667,-45.38,22.63,98,100,1.58,BR,1674696469
483,lebyazhye,55.2689,66.4947,-14.87,94,12,4.28,RU,1674696469
484,ust-maya,60.4167,134.5333,-39.8,95,100,1.09,RU,1674696469
485,ossora,59.2353,163.0719,-9.14,94,100,16.87,RU,1674696470
486,orange cove,36.6244,-119.3137,14.65,76,0,2.57,US,1674696470
487,pervomayskoye,43.919,46.7102,-3.69,86,5,2.31,RU,1674696470
488,ponazyrevo,58.3578,46.3142,-3.14,93,100,5.44,RU,1674696471
489,rocky mountain house,52.3668,-114.9188,3.06,75,100,2.06,CA,1674696471
490,japura,-0.3167,102.35,22.52,97,100,0.99,ID,1674696471
491,chicama,-7.8447,-79.1469,20.3,68,98,2.49,PE,1674696472
492,lazarev,52.225,141.5131,-18.94,78,80,8.54,RU,1674696472
493,talara,-4.5772,-81.2719,24.42,69,0,4.12,PE,1674696472
494,tumen,42.9661,129.8425,-14.05,68,26,1.19,CN,1674696473
495,luanda,-8.8368,13.2343,26.12,83,94,3.17,AO,1674696358
496,santiago del estero,-27.7951,-64.2615,23.46,85,30,2.95,AR,1674696467
497,wattegama,6.7989,81.4808,20.46,92,100,1.71,LK,1674696473
498,isangel,-19.55,169.2667,32.06,62,40,2.06,VU,1674696474
499,cascas,-7.4833,-78.8167,19.82,73,100,1.5,PE,1674696474
500,goderich,43.7501,-81.7165,-0.61,100,100,4.63,CA,1674696284
501,svarstad,59.399,9.9698,3.79,1,3,2.68,NO,1674696475
502,bajos de haina,18.4154,-70.0332,24.98,83,20,0.0,DO,1674696255
503,spasskoye,44.6108,132.7969,-22.26,92,38,0.95,RU,1674696475
504,zhanaozen,43.3,52.8,-4.28,38,0,2.74,KZ,1674696475
505,la reforma,25.0833,-108.05,19.08,45,100,4.75,MX,1674696476
506,saurimo,-9.6608,20.3916,15.95,96,100,1.32,AO,1674696476
507,kromy,52.6876,35.7667,-5.44,86,5,2.41,RU,1674696476
508,fortuna,40.5982,-124.1573,14.19,80,0,0.0,US,1674696477
509,tual,-5.6667,132.75,27.0,80,100,4.69,ID,1674696477
510,ayia marina,37.75,23.5333,11.39,71,100,2.98,GR,1674696478
511,anchorage,61.2181,-149.9003,4.55,87,100,4.63,US,1674696190
512,karratha,-20.7377,116.8463,33.02,49,30,3.92,AU,1674696478
513,kutum,14.2,24.6667,15.56,19,96,2.72,SD,1674696479
514,cardston,49.2,-113.3019,1.16,86,100,1.54,CA,1674696479
515,demba,-5.51,22.2667,17.38,96,100,0.64,CD,1674696479
516,nelson bay,-32.7167,152.15,31.16,73,0,3.58,AU,1674696479
517,milkovo,54.7167,158.6167,-1.21,86,100,13.43,RU,1674696480
518,sao felix do xingu,-6.6447,-51.995,21.98,98,100,0.53,BR,1674696480
519,filingue,14.3521,3.3168,23.75,13,3,3.13,NE,1674696480
520,hualmay,-11.0964,-77.6139,22.38,78,100,3.22,PE,1674696481
521,santa isabel do rio negro,-0.4139,-65.0192,24.07,74,18,1.19,BR,1674696429
522,huicheng,23.0385,116.2899,12.08,55,98,3.67,CN,1674696481
523,gushikawa,26.3544,127.8686,18.57,59,0,4.63,JP,1674696482
524,mailsi,29.8003,72.1758,7.77,52,0,2.85,PK,1674696482
525,eureka,40.8021,-124.1637,14.34,83,0,0.45,US,1674696483
526,galveston,29.3669,-94.9669,10.05,69,0,1.34,US,1674696288
527,tabas,33.5959,56.9244,-1.88,50,0,2.06,IR,1674696484
528,cervo,43.6702,-7.4101,9.98,78,90,4.59,ES,1674696486
529,pudozh,61.8099,36.5345,1.05,99,100,5.31,RU,1674696487
530,hobyo,5.3505,48.5268,24.34,68,0,8.75,SO,1674696488
531,quatre cocos,-20.2078,57.7625,23.38,93,100,7.13,MU,1674696488
532,khanpur,28.6453,70.6567,8.85,46,0,3.89,PK,1674696489
533,vila do maio,15.1333,-23.2167,19.44,73,99,2.72,CV,1674696489
534,vao,-22.6667,167.4833,26.95,78,7,2.26,NC,1674696490
535,shelburne,44.0787,-80.2041,-2.16,98,100,6.85,CA,1674696490
536,senneterre,48.3835,-77.2328,-9.14,95,100,3.09,CA,1674696491
537,yabrud,33.9674,36.6574,2.99,85,5,0.75,SY,1674696491
538,mersing,2.4312,103.8405,22.95,94,40,2.06,MY,1674696492
539,sabzevar,36.2126,57.6819,-2.39,47,0,1.33,IR,1674696493
540,tete,-16.1564,33.5867,24.05,100,75,2.06,MZ,1674696493
541,mikhaylovka,50.06,43.2379,-7.94,87,5,1.77,RU,1674696494
542,sao gabriel da cachoeira,-0.1303,-67.0892,25.09,77,98,0.63,BR,1674696495
543,harbour breton,47.4833,-55.7983,-5.28,65,64,5.33,CA,1674696495
544,lixourion,38.2019,20.4314,13.04,86,100,11.71,GR,1674696496
545,komsomolskiy,40.4272,71.7189,-7.6,79,5,2.06,UZ,1674696498
546,tunceli,39.1083,39.5471,2.1,62,77,1.62,TR,1674696498
547,egvekinot,66.3167,-179.1667,-24.85,76,1,8.9,RU,1674696499
548,hami,42.8,93.45,-12.01,44,0,3.18,CN,1674696499
549,kalmunai,7.4167,81.8167,23.76,81,100,3.2,LK,1674696500
550,kudahuvadhoo,2.6708,72.8944,26.45,74,92,2.05,MV,1674696500
551,svetlogorsk,52.6333,29.7333,-2.36,89,41,2.05,BY,1674696501
552,jiexiu,37.0244,111.9125,-4.95,29,100,3.88,CN,1674696501
553,joigny,47.9829,3.401,-0.66,91,87,1.85,FR,1674696503
554,boda,4.3189,17.4695,22.86,25,92,1.78,CF,1674696503
555,pak phanang,8.3511,100.202,26.01,73,100,3.78,TH,1674696504
556,prince rupert,54.3161,-130.3201,8.05,99,100,10.29,CA,1674696303
557,manono,-7.3,27.4167,18.51,97,100,0.56,CD,1674696505
558,monteagudo,-19.8167,-63.9833,20.85,93,100,1.06,BO,1674696506
559,yeppoon,-23.1333,150.7333,29.88,65,3,4.51,AU,1674696506
560,omaruru,-21.4333,15.9333,22.44,52,99,2.62,NA,1674696507
561,tautira,-17.7333,-149.15,26.82,83,20,8.21,PF,1674696508
562,inuvik,68.3499,-133.7218,-21.52,77,75,3.09,CA,1674696508
563,havelock,34.8791,-76.9013,20.99,86,100,5.36,US,1674696509
564,tura,25.5198,90.2201,15.5,54,54,1.12,IN,1674696510
565,pionerskiy,54.9508,20.2275,-1.81,84,99,5.6,RU,1674696511
566,teguise,29.0605,-13.564,14.12,51,75,8.23,ES,1674696283
567,ewa beach,21.3156,-158.0072,26.97,59,0,4.12,US,1674696512
568,puerto narino,-3.7703,-70.3831,22.9,97,100,0.82,CO,1674696513
569,college,64.8569,-147.8028,-11.72,78,100,1.54,US,1674696513
570,nicoya,10.1483,-85.452,25.18,78,64,3.98,CR,1674696513
571,stornoway,58.2093,-6.3865,5.98,88,100,2.06,GB,1674696514
