City_ID,City,Lat,Lng,Max Temp,Humidity,Cloudiness,Wind Speed,Country,Date
0,punta arenas,-53.15,-70.9167,17.06,27,0,5.66,CL,1674424011
1,yerbogachen,61.2767,108.0108,-40.43,98,97,2.88,RU,1674424011
2,dikson,73.5069,80.5464,-22.61,94,100,11.73,RU,1674424012
3,barreirinhas,-2.7469,-42.8264,25.49,84,21,2.96,BR,1674424012
4,ushuaia,-54.8,-68.3,13.81,44,0,5.14,AR,1674424012
5,luderitz,-26.6481,15.1594,19.3,81,0,7.46,NA,1674424013
6,puerto ayora,-0.7393,-90.3518,27.98,92,72,2.68,EC,1674423955
7,angoche,-16.2325,39.9086,24.44,90,97,3.47,MZ,1674424013
8,half moon bay,37.4636,-122.4286,16.24,50,0,8.23,US,1674423923
9,nikolskoye,59.7035,30.7861,-5.06,97,70,1.43,RU,1674424014
10,okhotsk,59.3833,143.3,-24.32,80,100,5.55,RU,1674424014
11,busselton,-33.65,115.3333,18.89,59,0,4.12,AU,1674424014
12,mbini,1.574,9.6134,26.58,81,91,2.65,GQ,1674424015
13,airai,-8.9266,125.4092,16.26,91,100,0.75,TL,1674424015
14,belaya gora,68.5333,146.4167,-44.33,100,98,1.0,RU,1674424015
15,hobart,-42.8794,147.3294,18.48,76,20,3.6,AU,1674424016
16,verkhnevilyuysk,63.4453,120.3167,-30.5,93,100,3.11,RU,1674424016
17,saqqez,36.2499,46.2735,-2.2,74,3,1.11,IR,1674424017
18,pemangkat,1.1667,108.9667,24.38,90,100,2.66,ID,1674424017
19,mataura,-46.1927,168.8643,14.17,46,69,2.3,NZ,1674424018
20,bluff,-46.6,168.3333,12.48,57,88,3.84,NZ,1674424018
21,castro,-24.7911,-50.0119,20.08,91,70,2.71,BR,1674424019
22,la macarena,2.1837,-73.7849,30.56,44,82,2.29,CO,1674424019
23,tigil,57.8,158.6667,-31.62,99,77,2.09,RU,1674424019
24,nome,64.5011,-165.4064,-21.96,71,0,9.77,US,1674423838
25,broken hill,-31.95,141.4333,24.4,40,0,5.27,AU,1674424020
26,barcelos,41.5388,-8.6151,8.8,74,63,2.25,PT,1674424020
27,rikitea,-23.1203,-134.9692,26.37,76,2,7.6,PF,1674424020
28,cockburn town,21.4612,-71.1419,26.98,65,40,7.2,TC,1674424021
29,katherine,-14.4667,132.2667,25.18,88,78,0.0,AU,1674424021
30,cape town,-33.9258,18.4232,21.23,70,0,5.66,ZA,1674423759
31,port alfred,-33.5906,26.891,21.21,96,100,2.51,ZA,1674424022
32,tiksi,71.6872,128.8694,-28.62,92,100,1.86,RU,1674424023
33,richards bay,-28.783,32.0377,22.78,90,7,1.21,ZA,1674424023
34,funadhoo,6.15,73.2667,26.65,72,100,4.3,MV,1674424023
35,agua verde,22.9,-106.05,22.34,67,4,4.04,MX,1674424024
36,san matias,-16.3667,-58.4,28.57,74,95,1.52,BO,1674424024
37,muskegon,43.3,-86.1334,1.68,88,100,1.54,US,1674423875
38,empangeni,-28.762,31.8933,21.44,93,3,0.82,ZA,1674424025
39,albany,42.6001,-73.9662,1.87,75,100,1.34,US,1674424026
40,bathsheba,13.2167,-59.5167,27.34,69,20,10.29,BB,1674424026
41,gat,31.61,34.7642,12.67,76,2,0.99,IL,1674424027
42,la asuncion,11.0333,-63.8628,24.48,84,65,7.22,VE,1674424027
43,naze,28.3667,129.4833,18.51,77,28,6.01,JP,1674424028
44,jalu,29.0331,21.5482,12.53,42,0,3.92,LY,1674424028
45,east london,-33.0153,27.9116,22.37,88,100,2.48,ZA,1674424029
46,srandakan,-7.9386,110.2506,24.78,87,92,1.9,ID,1674424029
47,avarua,-21.2078,-159.775,28.03,69,75,2.06,CK,1674424029
48,kapaa,22.0752,-159.319,26.18,76,75,2.06,US,1674424030
49,pacific grove,36.6177,-121.9166,15.57,57,61,8.05,US,1674423897
50,requena,39.4883,-1.1004,0.84,46,0,3.44,ES,1674424031
51,ikskile,56.8333,24.5,-2.18,96,26,1.28,LV,1674424031
52,barrow,71.2906,-156.7887,-22.99,84,0,4.12,US,1674424032
53,ancud,-41.8697,-73.8203,17.13,73,13,3.43,CL,1674424032
54,qaanaaq,77.484,-69.3632,-32.79,78,100,3.37,GL,1674424033
55,ilulissat,69.2167,-51.1,-10.99,92,100,2.06,GL,1674424033
56,hasaki,35.7333,140.8333,4.22,87,100,5.71,JP,1674424033
57,fort nelson,58.8053,-122.7002,-4.23,74,40,2.57,CA,1674424034
58,pokhara,28.2333,83.9833,12.33,14,0,3.37,NP,1674424034
59,lithgow,-33.4833,150.15,13.05,92,99,1.19,AU,1674424035
60,harper,4.375,-7.7169,26.21,82,30,3.64,LR,1674424035
61,karakol,42.4907,78.3936,-10.53,56,0,3.35,KG,1674424036
62,lebu,-37.6167,-73.65,17.55,79,1,5.82,CL,1674424036
63,kavaratti,10.5669,72.642,26.47,72,96,5.1,IN,1674424036
64,namatanai,-3.6667,152.4333,27.08,79,99,3.28,PG,1674424037
65,nouadhibou,20.931,-17.0347,19.99,52,0,9.26,MR,1674424037
66,satun,6.8333,100.0,24.0,97,77,1.27,TH,1674424038
67,new norfolk,-42.7826,147.0587,18.29,67,33,1.05,AU,1674424038
68,eureka,40.8021,-124.1637,12.08,62,13,6.26,US,1674423798
69,clyde river,70.4692,-68.5914,-32.87,68,100,9.26,CA,1674424038
70,olafsvik,64.8945,-23.7142,-0.79,53,25,15.14,IS,1674424039
71,hermanus,-34.4187,19.2345,19.89,79,76,4.69,ZA,1674424039
72,inirida,3.8653,-67.9239,25.41,83,100,1.1,CO,1674424040
73,kodiak,57.79,-152.4072,1.73,93,100,7.2,US,1674424040
74,saint-leu,-21.15,55.2833,24.48,86,100,2.09,RE,1674424041
75,saint-philippe,-21.3585,55.7679,24.77,83,100,2.84,RE,1674424042
76,georgetown,5.4112,100.3354,24.97,99,20,2.06,MY,1674423932
77,nakuru,-0.2833,36.0667,14.69,70,90,0.15,KE,1674424043
78,langarud,37.197,50.1535,5.53,74,15,0.64,IR,1674424043
79,marzuq,14.4,46.4667,14.43,81,20,2.39,YE,1674424044
80,ribeira grande,38.5167,-28.7,16.54,82,75,7.6,PT,1674424044
81,palmer,42.1584,-72.3287,3.62,77,100,2.57,US,1674424044
82,kalianget,-7.05,113.9333,25.66,82,100,0.73,ID,1674424045
83,challans,46.8436,-1.8749,-1.89,89,32,3.7,FR,1674424045
84,mar del plata,-38.0023,-57.5575,24.01,66,0,6.26,AR,1674423846
85,sur,22.5667,59.5289,18.6,58,35,5.11,OM,1674423853
86,miyako,39.6367,141.9525,-1.68,56,42,1.18,JP,1674424046
87,bengkulu,-3.8004,102.2655,22.61,97,100,1.91,ID,1674424046
88,urengoy,65.9667,78.3667,-22.5,99,100,3.19,RU,1674424047
89,bethel,41.3712,-73.414,4.64,73,100,2.57,US,1674423834
90,viedma,-40.8135,-62.9967,22.66,51,0,6.23,AR,1674423841
91,vaini,-21.2,-175.2,29.09,79,20,0.51,TO,1674424047
92,bukene,-4.2333,32.8833,17.19,92,94,1.6,TZ,1674424047
93,comodoro rivadavia,-45.8667,-67.5,17.92,55,0,6.17,AR,1674423774
94,vila franca do campo,37.7167,-25.4333,14.23,90,84,4.64,PT,1674423774
95,jamestown,42.097,-79.2353,0.57,72,100,0.0,US,1674424048
96,roma,43.2128,-75.4557,1.71,82,100,4.63,US,1674424017
97,xichang,27.8964,102.2634,3.54,67,66,0.79,CN,1674424048
98,constitucion,-35.3333,-72.4167,20.86,61,12,7.8,CL,1674424035
99,elk city,35.412,-99.4043,9.12,31,75,7.2,US,1674423975
100,revelstoke,50.9832,-118.2023,2.01,64,0,3.6,CA,1674423943
101,torbay,47.6666,-52.7314,-2.46,92,100,9.26,CA,1674424049
102,kvarkeno,52.0833,59.725,-12.04,82,100,2.5,RU,1674424049
103,san patricio,28.017,-97.5169,21.97,22,0,4.96,US,1674424050
104,camara de lobos,32.6333,-16.9667,18.17,80,40,9.77,PT,1674424050
105,hami,42.8,93.45,-13.13,32,0,4.43,CN,1674424050
106,carauari,-4.8828,-66.8958,26.49,87,52,0.6,BR,1674424051
107,netanya,32.3329,34.8599,13.3,64,12,2.41,IL,1674424051
108,bedele,8.456,36.353,16.68,46,99,1.69,ET,1674424051
109,talnakh,69.4865,88.3972,-23.91,96,99,1.4,RU,1674424052
110,adrar,20.5022,-10.0711,17.91,14,0,4.69,MR,1674424052
111,newport,51.5877,-2.9984,4.32,90,100,2.8,GB,1674423360
112,brus laguna,15.75,-84.4833,27.45,61,6,3.33,HN,1674424052
113,taksimo,56.3444,114.8794,-34.31,89,100,1.34,RU,1674424053
114,esperance,-33.8667,121.9,16.53,73,7,4.75,AU,1674424053
115,sao filipe,14.8961,-24.4956,20.99,65,2,5.23,CV,1674424054
116,nanortalik,60.1432,-45.2371,-6.58,59,40,2.37,GL,1674424054
117,funchal,32.6333,-16.9,18.17,80,40,9.77,PT,1674424054
118,road town,18.4167,-64.6167,28.05,69,40,4.12,VG,1674423788
119,hilo,19.7297,-155.09,27.93,70,40,3.09,US,1674424055
120,tuktoyaktuk,69.4541,-133.0374,-17.0,85,100,4.63,CA,1674424055
121,nizwa,22.9333,57.5333,14.93,66,62,0.72,OM,1674424055
122,dunedin,-45.8742,170.5036,14.89,50,18,4.47,NZ,1674424056
123,saint george,37.1041,-113.5841,5.24,47,0,3.09,US,1674424056
124,kahului,20.8947,-156.47,27.13,69,20,7.2,US,1674423761
125,buraydah,26.326,43.975,16.25,47,80,5.39,SA,1674423794
126,vanavara,60.34,102.2797,-44.05,100,91,1.76,RU,1674424057
127,zhigansk,66.7697,123.3711,-37.73,94,100,2.39,RU,1674424057
128,chodavaram,17.8333,82.95,19.91,80,85,1.18,IN,1674424057
129,atuona,-9.8,-139.0333,26.2,74,80,9.32,PF,1674424058
130,nabire,-3.3667,135.4833,23.96,91,100,1.01,ID,1674424058
131,oistins,13.0667,-59.5333,27.05,69,20,10.29,BB,1674424058
132,cherskiy,68.75,161.3,-34.77,93,100,1.28,RU,1674424059
133,mahibadhoo,3.7833,72.9667,26.98,73,98,8.01,MV,1674424059
134,hithadhoo,-0.6,73.0833,26.86,77,70,4.17,MV,1674424059
135,mount gambier,-37.8333,140.7667,17.7,75,100,2.9,AU,1674424060
136,sechura,-5.5569,-80.8222,25.3,63,21,6.24,PE,1674424060
137,sharjah,25.3573,55.4033,18.99,63,0,3.09,AE,1674424060
138,upernavik,72.7868,-56.1549,-29.92,64,74,4.28,GL,1674424061
139,pevek,69.7008,170.3133,-36.29,96,99,1.35,RU,1674424061
140,chuy,-33.6971,-53.4616,23.82,61,29,5.07,UY,1674424061
141,nishihara,26.1842,127.7558,19.6,94,100,5.14,JP,1674424062
142,luebo,-5.35,21.4167,22.04,82,78,0.24,CD,1674424062
143,ponta do sol,32.6667,-17.1,18.17,67,57,3.73,PT,1674424062
144,san cristobal,7.7669,-72.225,24.1,52,93,2.08,VE,1674424063
145,eyl,7.9803,49.8164,23.25,69,38,8.12,SO,1674424063
146,riberalta,-10.9833,-66.1,30.11,70,75,6.17,BO,1674424063
147,binga,-17.6203,27.3414,20.34,97,100,0.88,ZW,1674424064
148,kembe,4.6228,21.8865,21.02,33,95,0.97,CF,1674424064
149,kununurra,-15.7667,128.7333,24.99,94,76,0.0,AU,1674424064
150,meulaboh,4.1363,96.1285,23.57,92,100,2.01,ID,1674424065
151,nieuw nickerie,5.95,-56.9833,24.8,86,46,6.26,SR,1674424065
152,namie,37.4833,141.0,1.51,65,100,2.69,JP,1674424065
153,yellowknife,62.456,-114.3525,-14.71,85,75,2.57,CA,1674423770
154,lakselv,70.0513,24.9718,-1.1,74,75,15.43,NO,1674424066
155,mahebourg,-20.4081,57.7,25.16,94,75,1.54,MU,1674424066
156,serra,-20.1286,-40.3078,24.7,94,75,3.6,BR,1674424067
157,iqaluit,63.7506,-68.5145,-20.73,83,75,8.75,CA,1674424067
158,port lincoln,-34.7333,135.8667,18.0,77,98,5.73,AU,1674424067
159,bella vista,36.4295,-94.2316,3.04,91,100,5.14,US,1674424068
160,santa maria da vitoria,-13.3947,-44.1886,20.77,98,98,0.76,BR,1674424068
161,port-gentil,-0.7193,8.7815,26.98,89,20,1.54,GA,1674424068
162,koslan,63.4564,48.8989,-13.75,99,98,2.27,RU,1674424069
163,bredasdorp,-34.5322,20.0403,19.56,78,23,3.15,ZA,1674423967
164,chumikan,54.7183,135.315,-32.73,85,100,7.77,RU,1674424069
165,lahat,-3.8,103.5333,21.99,99,100,0.97,ID,1674423800
166,payakumbuh,-0.2202,100.6308,20.63,97,100,0.8,ID,1674424070
167,cayenne,4.9333,-52.3333,27.02,78,20,5.66,GF,1674424070
168,lypova dolyna,50.5643,33.7979,-2.18,85,17,3.16,UA,1674424070
169,mazagao,-0.115,-51.2894,23.61,95,89,2.61,BR,1674424071
170,vostok,46.4856,135.8833,-33.59,97,14,2.03,RU,1674424071
171,pflugerville,30.4394,-97.62,17.13,30,0,4.63,US,1674423818
172,kousseri,12.0769,15.0306,21.98,30,96,1.03,CM,1674424071
173,arraial do cabo,-22.9661,-42.0278,26.98,69,0,5.14,BR,1674424072
174,kaitangata,-46.2817,169.8464,14.67,47,27,3.67,NZ,1674424072
175,elizabeth city,36.2946,-76.2511,13.9,97,100,7.2,US,1674423855
176,kloulklubed,7.0419,134.2556,22.28,85,100,10.66,PW,1674424072
177,glenwood springs,39.5505,-107.3248,2.57,63,0,2.06,US,1674424069
178,maceio,-9.6658,-35.7353,27.69,78,0,5.14,BR,1674424073
179,amli,20.2833,73.0167,15.73,47,1,2.61,IN,1674424073
180,san andres,12.5847,-81.7006,29.01,70,40,5.66,CO,1674424074
181,karla,59.3723,24.9275,-5.01,93,100,2.06,EE,1674424074
182,onnaing,50.3858,3.5996,3.6,95,100,2.79,FR,1674424074
183,thompson,55.7435,-97.8558,-7.91,93,100,3.09,CA,1674423937
184,cabo san lucas,22.8909,-109.9124,25.9,63,23,2.24,MX,1674423866
185,sharan,54.8167,54.0,-12.12,91,100,2.83,RU,1674424075
186,sheridan,44.8333,-106.9173,3.21,57,100,7.72,US,1674424075
187,hambantota,6.1241,81.1185,23.19,100,40,1.03,LK,1674424076
188,lavrentiya,65.5833,-171.0,-29.58,93,53,5.03,RU,1674424076
189,kastamonu,41.5,33.6667,3.51,57,7,0.38,TR,1674424076
190,poum,-20.2333,164.0167,26.64,78,97,0.89,NC,1674424077
191,buala,-8.145,159.5921,28.89,69,100,2.53,SB,1674424077
192,naya bazar,27.1333,88.2667,11.78,61,0,2.53,IN,1674424077
193,kiama,-34.6833,150.8667,20.0,92,100,1.34,AU,1674424078
194,smolenka,52.1352,113.4974,-30.96,57,100,4.0,RU,1674424078
195,karratha,-20.7377,116.8463,28.08,64,63,2.77,AU,1674424078
196,belyy yar,53.6039,91.3903,-31.06,69,100,0.0,RU,1674424079
197,butaritari,3.0707,172.7902,27.0,75,96,6.01,KI,1674424079
198,cidreira,-30.1811,-50.2056,25.0,82,24,2.88,BR,1674424079
199,penzance,50.1186,-5.5371,8.38,80,100,7.2,GB,1674424080
200,carnarvon,-24.8667,113.6333,23.8,76,30,8.67,AU,1674424080
201,la libertad,-2.2333,-80.9,28.81,65,0,5.14,EC,1674424080
202,victoria,22.2855,114.1577,17.92,90,1,2.44,HK,1674423833
203,mut,36.6439,33.4389,8.74,54,0,0.52,TR,1674424081
204,anau,-16.5167,-151.7333,26.13,72,91,2.27,PF,1674424081
205,ajdabiya,30.7554,20.2263,11.98,49,0,5.29,LY,1674424082
206,dondo,-19.6094,34.7431,27.73,84,40,2.31,MZ,1674424082
207,grindavik,63.8424,-22.4338,1.97,55,75,12.35,IS,1674424083
208,isabela,6.7085,121.9711,24.03,89,100,1.85,PH,1674424083
209,provideniya,64.3833,-173.3,-20.94,65,0,9.0,RU,1674424084
210,beringovskiy,63.05,179.3167,-21.36,94,100,6.73,RU,1674424084
211,tuatapere,-46.1333,167.6833,13.8,54,39,3.01,NZ,1674424085
212,tahlequah,35.9154,-94.97,4.6,70,100,2.06,US,1674424085
213,leshan,29.5623,103.7639,6.45,73,97,1.89,CN,1674424086
214,coihaique,-45.5752,-72.0662,21.34,35,20,4.63,CL,1674424037
215,monze,-16.2833,27.4833,17.54,99,100,1.45,ZM,1674424087
216,kaeo,-35.1,173.7833,21.1,70,82,1.89,NZ,1674424087
217,sao joao da barra,-21.6403,-41.0511,28.05,93,33,3.63,BR,1674424087
218,petropavlovsk-kamchatskiy,53.0452,158.6483,-19.67,60,75,2.0,RU,1674423909
219,wenzhou,27.9994,120.6668,12.0,90,100,1.13,CN,1674424088
220,saldanha,-33.0117,17.9442,17.03,89,0,7.05,ZA,1674424088
221,liverpool,53.4106,-2.9779,4.6,89,40,2.57,GB,1674424089
222,mangan,27.5167,88.5333,11.49,46,7,2.56,IN,1674424089
223,sumenep,-7.0167,113.8667,25.18,85,100,0.63,ID,1674424089
224,matara,5.9485,80.5353,23.31,88,100,3.54,LK,1674424090
225,traverse city,44.7631,-85.6206,0.06,87,100,2.57,US,1674423470
226,mayo,38.8876,-76.5119,5.55,87,100,2.57,US,1674423821
227,korsakovo,53.2677,37.3569,-2.76,78,100,2.36,RU,1674424090
228,la ronge,55.1001,-105.2842,0.14,80,100,7.72,CA,1674424091
229,bara,10.3744,10.7288,23.28,18,35,2.29,NG,1674424091
230,jumla,29.2747,82.1838,-0.22,21,0,2.5,NP,1674424092
231,itoman,26.1247,127.6694,20.01,94,75,5.14,JP,1674424092
232,burkburnett,34.0979,-98.5706,11.38,38,0,7.2,US,1674423830
233,banda aceh,5.5577,95.3222,24.1,90,100,2.66,ID,1674424092
234,vardo,70.3705,31.1107,-1.01,93,0,11.32,NO,1674424093
235,segezha,63.7415,34.3222,-12.0,95,50,2.65,RU,1674424093
236,vila do maio,15.1333,-23.2167,21.73,65,12,7.24,CV,1674424093
237,nalut,30.3333,10.85,5.9,73,13,3.51,LY,1674424094
238,patna,25.6,85.1167,15.96,94,20,0.0,IN,1674424094
239,namibe,-15.1961,12.1522,22.58,80,100,1.73,AO,1674424095
240,sabang,5.8933,95.3214,25.9,81,100,4.88,ID,1674424095
241,apollonia,36.9716,24.7231,9.77,63,2,2.28,GR,1674424095
242,buchanan,5.8808,-10.0467,25.82,86,100,3.08,LR,1674424096
243,sitka,57.0531,-135.33,3.94,75,100,7.2,US,1674424097
244,qasigiannguit,68.8193,-51.1922,-10.86,92,100,1.13,GL,1674424097
245,mpulungu,-8.7623,31.1141,20.98,80,90,1.16,ZM,1674424097
246,caravelas,-17.7125,-39.2481,26.03,85,98,4.52,BR,1674424098
247,moranbah,-22.0016,148.0466,24.54,73,5,4.68,AU,1674424098
248,kardla,58.9978,22.7492,-6.08,93,11,2.13,EE,1674424099
249,kavieng,-2.5744,150.7967,27.66,77,100,4.39,PG,1674424099
250,gasa,31.5,34.4667,14.86,71,7,1.19,PS,1674423975
251,orel-izumrud,43.4583,39.9244,4.01,75,34,4.0,RU,1674424100
252,shimoda,34.6667,138.95,5.61,67,100,5.19,JP,1674424100
253,zapolyarnyy,69.4154,30.8136,-2.4,82,71,6.61,RU,1674424100
254,myre,69.1036,15.9492,4.38,88,96,19.16,NO,1674424101
255,tasiilaq,65.6145,-37.6368,-10.91,58,77,3.42,GL,1674424101
256,kirakira,-10.4544,161.9205,28.12,76,100,1.51,SB,1674424101
257,kargil,34.5667,76.1,-26.1,85,97,1.15,IN,1674424102
258,auki,-8.7676,160.7034,28.13,72,87,0.99,SB,1674424102
259,ngunguru,-35.6167,174.5,20.12,69,61,2.77,NZ,1674424102
260,bilibino,68.0546,166.4372,-25.51,88,100,1.71,RU,1674424103
261,cape coast,5.1053,-1.2466,27.06,83,40,4.49,GH,1674424103
262,laguna,38.421,-121.4238,14.45,42,0,10.8,US,1674424103
263,sovetskiy,61.3614,63.5842,-10.03,92,87,3.08,RU,1674424104
264,mount isa,-20.7333,139.5,23.87,50,75,0.51,AU,1674424104
265,narsaq,60.9167,-46.05,-15.88,67,0,3.67,GL,1674424105
266,praia,14.9215,-23.5087,21.04,66,13,6.01,CV,1674424105
267,severo-kurilsk,50.6789,156.125,-10.4,76,48,2.41,RU,1674424105
268,maku,39.2911,44.4521,-0.8,81,98,0.85,IR,1674424106
269,sola,-13.8833,167.55,26.43,81,99,5.03,VU,1674424106
270,antalaha,-14.9003,50.2788,24.07,88,100,1.75,MG,1674424106
271,khatanga,71.9667,102.5,-40.65,93,22,1.64,RU,1674424107
272,tommot,58.9564,126.2925,-33.53,91,100,4.75,RU,1674424107
273,rawson,-43.3002,-65.1023,17.28,62,22,7.72,AR,1674424108
274,pepel,8.5817,-13.0628,23.6,78,1,2.89,SL,1674424108
275,mwinilunga,-11.7358,24.4293,16.17,97,99,1.79,ZM,1674424108
276,prince rupert,54.3161,-130.3201,3.05,87,100,12.35,CA,1674424109
277,pecos,31.4229,-103.4932,15.13,21,0,2.06,US,1674424109
278,bambous virieux,-20.3428,57.7575,25.14,94,75,1.54,MU,1674424109
279,katsuura,35.1333,140.3,4.01,92,100,6.93,JP,1674424110
280,cervo,43.6702,-7.4101,7.55,69,51,4.19,ES,1674424110
281,salinopolis,-0.6136,-47.3561,25.13,89,90,4.93,BR,1674423857
282,cotonou,6.3654,2.4183,26.99,89,20,3.09,BJ,1674424111
283,komsomolskiy,40.4272,71.7189,-5.6,79,95,1.03,UZ,1674424111
284,souillac,-20.5167,57.5167,25.21,94,75,1.54,MU,1674424111
285,mecca,21.4267,39.8261,22.93,73,32,1.79,SA,1674424112
286,port keats,-14.25,129.55,26.41,78,86,2.16,AU,1674424112
287,lumphat,13.4878,106.9816,22.13,81,36,2.48,KH,1674424112
288,shipunovo,52.1582,82.2173,-12.34,65,100,9.83,RU,1674424113
289,waddan,29.1614,16.139,12.62,21,0,2.26,LY,1674424113
290,barsovo,61.1667,73.1667,-4.93,95,99,3.77,RU,1674424113
291,saskylakh,71.9167,114.0833,-34.21,87,100,1.05,RU,1674424114
292,bubaque,11.2833,-15.8333,23.4,72,1,8.47,GW,1674424114
293,vila,42.0304,-8.1588,1.49,81,65,1.82,PT,1674424114
294,bemidji,47.4736,-94.8803,-3.23,79,0,2.06,US,1674424114
295,stephenville,32.2207,-98.2023,13.07,27,0,3.6,US,1674424115
296,curuca,-0.7289,-47.8481,23.58,96,81,2.3,BR,1674424115
297,ngaoundere,7.3167,13.5833,19.96,23,73,2.46,CM,1674424115
298,san-pedro,4.7485,-6.6363,26.08,84,100,3.6,CI,1674424116
299,kerrville,30.0474,-99.1403,16.67,27,0,4.63,US,1674424116
300,hamilton,39.1834,-84.5333,2.19,92,100,0.89,US,1674423538
301,makakilo city,21.3469,-158.0858,27.18,57,0,4.12,US,1674424117
302,mayumba,-3.432,10.6554,26.03,84,100,1.17,GA,1674424117
303,mbanza-ngungu,-5.25,14.8667,19.94,93,99,0.35,CD,1674424117
304,gorontalo,0.5412,123.0595,23.57,95,100,1.48,ID,1674424118
305,norman wells,65.282,-126.8329,-17.98,78,100,1.54,CA,1674424118
306,oktyabrskiy,54.4815,53.471,-12.54,92,100,2.39,RU,1674424119
307,kirensk,57.7853,108.1119,-42.18,99,78,1.26,RU,1674424119
308,brookings,44.3114,-96.7984,-3.0,82,0,0.0,US,1674424119
309,omsukchan,62.5333,155.8,-33.66,99,100,2.81,RU,1674424120
310,tomakivka,47.8157,34.7414,-0.57,85,67,4.19,UA,1674424120
311,savinka,50.0785,47.0994,-5.75,67,35,3.55,RU,1674424120
312,henties bay,-22.116,14.2845,19.02,84,83,2.71,NA,1674424121
313,chinsali,-10.5414,32.0816,16.67,97,100,0.51,ZM,1674424121
314,iaciara,-14.0958,-46.6317,21.19,88,93,2.84,BR,1674424121
315,rovenki,48.0833,39.3776,-1.65,71,95,7.06,UA,1674424122
316,villa carlos paz,-31.4241,-64.4978,28.36,58,70,6.88,AR,1674424122
317,garbsen,52.4167,9.6,2.25,97,75,1.54,DE,1674424122
318,aklavik,68.2191,-135.0107,-20.12,92,98,5.62,CA,1674424123
319,ahipara,-35.1667,173.1667,21.88,66,80,1.65,NZ,1674424123
320,kudahuvadhoo,2.6708,72.8944,25.73,82,68,4.88,MV,1674424123
321,klaksvik,62.2266,-6.589,6.51,72,100,11.05,FO,1674424124
322,offa,8.15,4.7167,26.46,24,3,0.99,NG,1674424124
323,creel,27.75,-107.6333,11.91,10,0,7.71,MX,1674424124
324,aksu,41.1231,80.2644,-14.47,83,5,3.23,CN,1674424125
325,mazamitla,19.9167,-103.0333,20.1,27,0,4.1,MX,1674424125
326,hue,16.4667,107.6,21.06,100,100,2.06,VN,1674424125
327,awbari,26.5921,12.7805,12.15,22,0,2.59,LY,1674424126
328,pangnirtung,66.1451,-65.7125,-20.0,84,100,3.6,CA,1674424126
329,vestmanna,62.1564,-7.1664,5.51,70,75,7.2,FO,1674424126
330,sinegorye,62.0788,150.477,-30.58,99,100,2.44,RU,1674424127
331,port macquarie,-31.4333,152.9167,20.5,85,62,1.19,AU,1674423886
332,kutum,14.2,24.6667,16.84,16,3,4.29,SD,1674424127
333,porto novo,6.4965,2.6036,26.9,80,90,2.99,BJ,1674424127
334,mackenzie,55.2999,-123.1698,-4.88,80,0,4.12,CA,1674423932
335,ayan,56.45,138.1667,-31.56,71,100,5.89,RU,1674424128
336,petrivka,46.9695,30.9591,1.41,85,9,3.89,UA,1674424128
337,lorengau,-2.0226,147.2712,28.29,77,88,3.76,PG,1674424128
338,padang,-0.9492,100.3543,23.03,91,100,1.59,ID,1674424129
339,ust-tsilma,65.441,52.1498,-5.95,94,100,2.97,RU,1674424129
340,abdanan,32.9926,47.4198,8.0,52,0,2.17,IR,1674424130
341,brattvag,62.6002,6.4434,6.76,65,40,6.69,NO,1674424130
342,gazanjyk,39.2446,55.5154,-2.37,60,0,3.1,TM,1674424130
343,acapulco,16.8634,-99.8901,29.9,51,0,3.09,MX,1674423845
344,faanui,-16.4833,-151.75,26.18,72,90,2.28,PF,1674424131
345,saint-francois,46.4154,3.9054,-0.31,88,100,3.6,FR,1674424131
346,dhenkanal,20.6667,85.6,17.2,83,12,0.43,IN,1674423652
347,hirara,24.8,125.2833,19.15,94,75,4.12,JP,1674424131
348,lakatoro,-16.0999,167.4164,28.17,74,96,0.43,VU,1674424132
349,zabol,32.25,67.25,-3.47,88,66,0.44,AF,1674424132
350,arles,43.6768,4.6303,3.48,52,0,8.75,FR,1674424019
351,ritchie,-29.038,24.6028,22.27,50,91,11.67,ZA,1674424133
352,inhambane,-23.865,35.3833,27.24,78,99,6.14,MZ,1674424133
353,quatre cocos,-20.2078,57.7625,25.06,82,100,2.85,MU,1674424133
354,saint-augustin,51.226,-58.6502,-9.84,89,49,2.32,CA,1674424134
355,paralimni,35.0375,33.9833,10.49,71,0,4.39,CY,1674424134
356,karpogory,64.0019,44.4451,-11.62,97,89,2.7,RU,1674424134
357,healesville,-37.65,145.5167,19.88,72,34,0.22,AU,1674424135
358,kayanga,-1.5303,31.1511,14.77,81,99,1.41,TZ,1674424135
359,worland,44.0169,-107.9554,-0.36,74,100,2.06,US,1674424135
360,takoradi,4.8845,-1.7554,26.71,82,21,3.68,GH,1674424136
361,puerto penasco,31.3167,-113.5333,14.39,47,2,3.13,MX,1674423932
362,antofagasta,-23.65,-70.4,21.6,75,8,3.68,CL,1674424136
363,denpasar,-8.65,115.2167,25.81,88,40,4.63,ID,1674423983
364,honningsvag,70.9821,25.9704,2.86,75,0,12.35,NO,1674424137
365,fortuna,40.5982,-124.1573,11.31,61,0,6.69,US,1674424137
366,brigantine,39.4101,-74.3646,5.57,87,100,0.45,US,1674424137
367,shimanovsk,52.0,127.7,-31.82,95,100,2.82,RU,1674424137
368,kalmanka,52.8992,83.5433,-11.81,80,100,7.39,RU,1674424138
369,husavik,66.0449,-17.3389,-4.71,76,69,5.87,IS,1674424138
370,flinders,-34.5833,150.8552,19.1,92,100,3.42,AU,1674424139
371,mehamn,71.0357,27.8492,3.97,70,0,9.77,NO,1674424139
372,barahona,18.2085,-71.1008,28.9,70,20,6.17,DO,1674424139
373,rovaniemi,66.5,25.7167,-3.33,93,100,8.23,FI,1674424140
374,jacareacanga,-6.2222,-57.7528,23.93,95,97,1.04,BR,1674424140
375,tura,25.5198,90.2201,13.8,52,4,1.56,IN,1674424140
376,banjar,-8.19,114.9675,22.89,84,100,1.78,ID,1674424141
377,isangel,-19.55,169.2667,29.18,71,73,0.9,VU,1674424141
378,kamina,-8.7386,24.9906,16.89,96,99,1.7,CD,1674424141
379,chokurdakh,70.6333,147.9167,-42.23,99,62,2.62,RU,1674424142
380,pisco,-13.7,-76.2167,26.03,61,47,6.69,PE,1674424142
381,atherton,53.5237,-2.4935,4.47,83,100,1.34,GB,1674423713
382,yar-sale,66.8333,70.8333,-6.69,92,100,6.01,RU,1674424143
383,manakara,-22.1333,48.0167,23.81,95,100,7.59,MG,1674424143
384,mandiana,10.6333,-8.6833,27.88,19,71,1.73,GN,1674424144
385,narimanov,46.6927,47.8498,-6.05,71,1,5.96,RU,1674424144
386,verkhoyansk,67.5447,133.385,-48.66,100,98,0.48,RU,1674424145
387,port elizabeth,-33.918,25.5701,21.84,95,100,1.03,ZA,1674424145
388,hofn,64.2539,-15.2082,2.01,57,4,11.75,IS,1674424146
389,lazaro cardenas,17.9583,-102.2,27.44,57,0,3.72,MX,1674424146
390,sinnamary,5.3833,-52.95,24.86,84,90,5.45,GF,1674424146
391,ceyhan,37.0247,35.8175,8.91,62,0,1.96,TR,1674424147
392,saint anthony,45.0205,-93.218,-5.99,91,100,3.09,US,1674424147
393,ulaangom,49.9811,92.0667,-30.91,86,75,1.62,MN,1674424148
394,tarko-sale,64.9225,77.785,-17.8,97,98,3.21,RU,1674424148
395,mackay,-21.15,149.2,27.05,72,19,3.13,AU,1674424148
396,kayerkan,69.3497,87.7602,-28.17,98,73,1.45,RU,1674424149
397,codrington,-38.2667,141.9667,18.12,79,100,2.76,AU,1674424149
398,paratebueno,4.3758,-73.2155,30.48,44,92,1.44,CO,1674424149
399,mount pleasant,32.7941,-79.8626,14.99,98,75,3.6,US,1674423859
400,balkanabat,39.5108,54.3671,-0.16,47,0,0.4,TM,1674424150
401,nisia floresta,-6.0911,-35.2086,28.45,79,5,4.08,BR,1674424150
402,wilmington island,32.0036,-80.9737,16.1,97,100,2.57,US,1674424151
403,dezhou,37.4486,116.2925,-3.78,95,90,2.47,CN,1674424151
404,ugoofaaru,5.6667,73.0,26.69,73,99,4.67,MV,1674424152
405,porto santo,33.072,-16.3415,16.21,72,75,8.75,PT,1674424152
406,luanda,-8.8368,13.2343,27.0,78,20,3.09,AO,1674424152
407,tiznit,29.5833,-9.5,13.21,53,0,1.44,MA,1674424153
408,lompoc,34.6391,-120.4579,18.77,53,0,7.72,US,1674424153
409,scharding,48.4529,13.4372,-0.07,96,60,0.82,AT,1674424153
410,smithers,54.7804,-127.1743,-3.82,86,100,1.03,CA,1674423915
411,khani,41.9563,42.9566,4.76,61,1,2.55,GE,1674424154
412,hun,29.1268,15.9477,12.58,21,0,0.38,LY,1674424154
413,opuwo,-18.0607,13.84,20.15,75,95,2.11,NA,1674424155
414,guerrero negro,27.9769,-114.0611,16.74,38,0,7.49,MX,1674424155
415,ambilobe,-13.2,49.05,22.75,97,100,1.63,MG,1674424155
416,te anau,-45.4167,167.7167,14.84,51,20,1.02,NZ,1674424156
417,sosua,19.7667,-70.5167,28.99,89,20,6.17,DO,1674424156
418,terrace bay,48.7834,-87.1,-4.03,87,71,1.92,CA,1674424157
419,kargasok,59.0556,80.8572,-13.68,96,100,2.85,RU,1674424157
420,sibolga,1.7427,98.7792,23.48,95,100,0.62,ID,1674424157
421,los llanos de aridane,28.6585,-17.9182,16.86,79,100,8.75,ES,1674424158
422,victor harbor,-35.5667,138.6167,16.49,78,59,3.13,AU,1674424158
423,neryungri,56.6709,124.6491,-34.14,93,100,5.03,RU,1674424158
424,shingu,33.7333,135.9833,6.24,78,100,3.27,JP,1674424159
425,borba,-4.3878,-59.5939,25.14,96,90,1.0,BR,1674424159
426,madang,-5.2246,145.7966,25.34,90,98,2.05,PG,1674424159
427,muros,42.7762,-9.0603,6.72,83,65,3.38,ES,1674424160
428,byron bay,-28.65,153.6167,25.1,67,95,0.65,AU,1674424160
429,asfi,32.2994,-9.2372,14.08,81,0,8.12,MA,1674424161
430,georgiyevka,43.0369,74.7114,-17.98,92,4,1.0,KZ,1674424161
431,qandala,11.472,49.8728,22.84,69,39,3.57,SO,1674424161
432,lagoa,39.05,-27.9833,15.08,80,79,7.77,PT,1674424162
433,san juan,-31.5375,-68.5364,35.02,22,1,5.42,AR,1674424044
434,coquimbo,-29.9533,-71.3436,19.85,72,0,5.66,CL,1674424162
435,tilichiki,60.4667,166.1,-9.45,67,100,14.98,RU,1674424162
436,astanajapura,-6.8017,108.6311,25.05,86,99,2.22,ID,1674424163
437,carbonia,39.1672,8.5222,2.78,82,51,1.4,IT,1674424078
438,dingle,10.9995,122.6711,22.97,94,100,4.03,PH,1674424163
439,geraldton,-28.7667,114.6,21.23,78,100,6.69,AU,1674423585
440,necochea,-38.5473,-58.7368,20.59,68,0,5.77,AR,1674423850
441,rio grande,-32.035,-52.0986,32.06,76,0,7.16,BR,1674424164
442,madina,5.6823,-0.1641,27.98,89,20,5.66,GH,1674424164
443,dalby,-27.1833,151.2667,22.14,69,85,3.13,AU,1674424164
444,ferme-neuve,46.7001,-75.4493,-2.27,98,100,1.56,CA,1674424165
445,sept-iles,50.2001,-66.3821,-5.53,71,100,2.57,CA,1674424165
446,macae,-22.3708,-41.7869,25.86,89,40,2.57,BR,1674424165
447,kesan,40.8558,26.6303,9.8,76,51,2.0,TR,1674424166
448,tessaoua,13.7574,7.9874,22.51,15,100,3.27,NE,1674424166
449,nanakuli,21.3906,-158.1547,27.97,52,0,4.12,US,1674424166
450,tuy hoa,13.0833,109.3,22.16,93,98,2.3,VN,1674424167
451,camopi,3.1655,-52.3158,22.75,94,100,1.92,GF,1674424167
452,neubrandenburg,53.5667,13.2667,1.99,89,100,2.59,DE,1674424168
453,mirnyy,62.5353,113.9611,-36.54,66,100,4.92,RU,1674424168
454,longyearbyen,78.2186,15.6401,0.91,86,75,3.09,SJ,1674424168
455,capim grosso,-11.3811,-40.0128,26.53,56,99,1.56,BR,1674424169
456,show low,34.2542,-110.0298,6.16,34,0,10.8,US,1674423991
457,chara,56.9064,118.2631,-34.52,90,100,0.71,RU,1674424169
458,ahuimanu,21.4447,-157.8378,27.84,66,40,3.09,US,1674424169
459,san quintin,30.4833,-115.95,15.35,58,0,6.77,MX,1674424170
460,alofi,-19.0595,-169.9187,29.94,70,68,4.12,NU,1674424170
461,port augusta,-32.5,137.7667,24.66,39,65,3.0,AU,1674424052
462,rosarito,32.3333,-117.0333,15.82,70,34,4.15,MX,1674424170
463,marystown,47.1666,-55.1483,-2.92,77,18,4.81,CA,1674424171
464,wanlaweyn,2.6185,44.8938,24.81,76,46,6.82,SO,1674424171
465,kotido,2.9806,34.1331,24.78,32,94,4.69,UG,1674424171
466,bani,18.2833,-70.3333,27.7,63,24,5.73,DO,1674424172
467,saint-joseph,-21.3667,55.6167,24.21,85,100,2.57,RE,1674424172
468,margate,51.3813,1.3862,4.83,77,39,1.79,GB,1674424088
469,manchester,53.4809,-2.2374,4.43,83,100,1.03,GB,1674424155
470,moose factory,51.2585,-80.6094,-5.0,80,100,3.6,CA,1674424173
471,mzimba,-11.9,33.6,16.28,97,100,1.68,MW,1674424173
472,stalybridge,53.4841,-2.0591,4.02,87,100,0.91,GB,1674424173
473,manicore,-5.8092,-61.3003,29.97,74,0,1.03,BR,1674424174
474,nizhneangarsk,55.7833,109.55,-36.51,80,43,2.29,RU,1674424174
475,paamiut,61.994,-49.6678,-5.99,81,100,6.67,GL,1674424174
476,shihezi,44.3,86.0333,-24.93,97,96,1.7,CN,1674424131
477,lata,40.1629,-8.3327,6.15,74,5,2.12,PT,1674424175
478,ilhabela,-23.7781,-45.3581,25.44,87,100,3.47,BR,1674424175
479,luganville,-15.5333,167.1667,27.78,76,100,0.47,VU,1674424175
480,trabzon,40.9167,39.8333,6.05,87,40,2.06,TR,1674424176
481,ordynskoye,54.3656,81.8994,-11.8,94,100,7.52,RU,1674424176
482,ottumwa,41.02,-92.4113,-1.14,94,100,5.14,US,1674424169
483,inyonga,-6.7167,32.0667,17.29,97,100,2.91,TZ,1674424176
484,akdepe,42.0551,59.3788,-7.95,51,0,4.58,TM,1674424177
485,shache,38.4167,77.2406,-12.4,88,100,3.44,CN,1674424177
486,kulhudhuffushi,6.6221,73.07,26.51,73,100,4.01,MV,1674424178
487,veraval,20.9,70.3667,16.26,51,1,5.18,IN,1674424178
488,turukhansk,65.8167,87.9833,-22.43,90,100,6.87,RU,1674424179
489,nador,35.174,-2.9287,9.14,61,0,0.51,MA,1674424180
490,vicuna,-30.0319,-70.7081,29.87,47,0,3.53,CL,1674423962
491,sudak,44.85,34.9667,4.54,84,24,3.79,UA,1674424181
492,santa maria,-29.6842,-53.8069,33.61,36,20,2.06,BR,1674424181
493,havre-saint-pierre,50.2334,-63.5986,-3.8,80,100,4.63,CA,1674424181
494,kabare,-2.4683,28.8242,15.16,90,99,0.73,CD,1674424182
495,kulu,39.0951,33.0799,5.12,54,37,1.94,TR,1674424182
496,salalah,17.0151,54.0924,24.05,64,40,4.12,OM,1674424182
497,general pico,-35.6566,-63.7568,32.28,32,1,0.86,AR,1674424183
498,alta floresta,-9.8756,-56.0861,23.54,92,89,1.37,BR,1674424183
499,vryburg,-26.9566,24.7284,24.01,40,50,3.48,ZA,1674424183
500,tombouctou,20.0,-3.0,19.37,13,0,4.86,ML,1674424184
501,shepsi,44.0361,39.1489,9.2,69,57,2.37,RU,1674424184
502,redkino,56.6475,36.2967,-4.76,96,89,1.5,RU,1674424184
503,brae,60.3964,-1.353,8.28,91,100,5.72,GB,1674424185
504,songea,-10.6833,35.65,18.64,94,75,1.54,TZ,1674424185
505,tautira,-17.7333,-149.15,25.35,73,100,2.88,PF,1674424186
506,ixtapa,20.7,-105.2,25.13,74,3,2.24,MX,1674424186
507,yinchuan,38.4681,106.2731,-8.93,35,49,3.9,CN,1674424186
508,cape canaveral,28.4058,-80.6048,28.36,59,0,6.69,US,1674424187
509,krasnoselkup,65.7,82.4667,-21.03,97,100,5.02,RU,1674424187
510,barbalha,-7.3111,-39.3042,30.89,55,20,1.03,BR,1674424187
511,santo amaro da imperatriz,-27.6881,-48.7786,28.9,98,78,0.99,BR,1674424188
512,odweyne,9.4092,45.064,18.64,51,20,0.45,SO,1674424188
513,leningradskiy,69.3833,178.4167,-36.13,89,43,2.33,RU,1674424188
514,kismayo,-0.3582,42.5454,25.12,87,57,6.83,SO,1674424189
515,alamosa,37.4695,-105.87,-2.01,46,0,1.54,US,1674424011
516,kachiry,53.0675,76.1036,-7.22,84,100,6.69,KZ,1674424189
517,presidencia roque saenz pena,-26.7852,-60.4388,36.19,27,5,2.64,AR,1674424189
518,daru,-9.0763,143.2092,26.43,86,100,2.68,PG,1674424190
519,mahanoro,-19.9,48.8,23.2,95,100,4.59,MG,1674424190
520,ponta delgada,37.7333,-25.6667,14.4,94,40,2.57,PT,1674424004
521,lalsot,26.5667,76.3333,11.5,79,0,3.21,IN,1674424191
522,barranca,-10.75,-77.7667,22.7,74,36,3.39,PE,1674424191
523,arlit,18.7369,7.3853,22.14,11,0,2.3,NE,1674424191
524,the valley,18.217,-63.0578,26.08,69,20,6.69,AI,1674424192
525,yurla,59.3259,54.3223,-13.43,98,98,1.69,RU,1674424192
526,aleksandrovsk-sakhalinskiy,50.8975,142.1561,-26.59,100,100,0.65,RU,1674424192
527,charters towers,-20.1,146.2667,24.63,76,52,3.94,AU,1674424193
528,sloboda,51.1421,40.3021,-4.93,87,99,3.05,RU,1674424193
529,levski,43.3667,25.1333,8.58,89,8,2.61,BG,1674424193
530,kihei,20.785,-156.4656,27.13,73,20,7.2,US,1674423951
531,lima,-12.0432,-77.0282,23.14,69,0,4.63,PE,1674423956
532,kefamenanu,-9.4467,124.4781,21.25,84,100,1.0,ID,1674424194
533,muswellbrook,-32.2667,150.9,19.07,85,100,1.7,AU,1674424194
534,mugur-aksy,50.35,90.5,-27.12,59,47,2.83,RU,1674424194
535,santa cruz de la palma,28.6835,-17.7642,19.08,77,100,8.75,ES,1674424195
536,panama city,8.9936,-79.5197,29.97,69,40,7.72,PA,1674424195
537,tocopilla,-22.092,-70.1979,21.77,77,10,2.39,CL,1674424196
538,tabuk,17.4189,121.4443,19.53,90,91,1.1,PH,1674424196
539,srednekolymsk,67.45,153.6833,-43.83,100,100,0.57,RU,1674424196
540,flin flon,54.7682,-101.865,-2.09,93,100,2.57,CA,1674424197
541,san lorenzo,-25.3333,-57.5333,35.33,35,53,3.41,PY,1674423869
542,hovd,48.0056,91.6419,-22.33,56,2,0.77,MN,1674424197
543,oktyabrskoye,43.0645,44.7417,-2.92,100,16,1.0,RU,1674424197
544,sandnessjoen,66.0217,12.6316,1.29,92,100,13.49,NO,1674424198
545,gondar,12.6,37.4667,14.44,45,24,2.3,ET,1674424198
546,bela vista do paraiso,-22.9967,-51.1906,25.58,79,95,0.91,BR,1674424198
547,saurimo,-9.6608,20.3916,17.39,97,90,1.85,AO,1674424199
548,kidal,18.4411,1.4078,23.58,12,13,3.73,ML,1674424199
549,ruwi,23.5996,58.5507,17.83,51,0,1.74,OM,1674424199
550,harlingen,26.1906,-97.6961,24.47,27,0,4.63,US,1674424124
551,akonolinga,3.7667,12.25,20.35,51,26,1.02,CM,1674424200
552,camapua,-19.5314,-54.0439,24.31,87,97,2.05,BR,1674424200
553,tabuleiro do norte,-5.2467,-38.1306,27.5,68,90,4.59,BR,1674424201
554,costinesti,43.95,28.6333,6.7,92,97,5.59,RO,1674424201
555,koster,-25.863,26.8976,18.13,30,8,3.79,ZA,1674424023
556,nelson bay,-32.7167,152.15,20.56,97,99,2.24,AU,1674424201
557,bandarbeyla,9.4942,50.8122,23.49,72,79,8.79,SO,1674424202
558,loiza,18.4313,-65.8802,27.99,68,20,7.2,PR,1674424202
559,toma,12.7667,-2.8833,25.86,14,9,2.48,BF,1674424203
560,belle glade,26.6845,-80.6676,28.34,54,91,7.37,US,1674424189
561,wladyslawowo,54.7909,18.4009,3.64,73,100,4.67,PL,1674424203
